{
  "lottoMarkets": [
    {
      "no": 1,
      "storeName": "꽃길복권방",
      "lat": 37.634971,
      "lng": 127.0294575,
      "roadAddr": "서울 강북구 덕릉로 140",
      "addr": "서울 강북구 번2동 437-10번지"
    },
    {
      "no": 2,
      "storeName": "다모아",
      "lat": 37.5044702,
      "lng": 126.8918236,
      "roadAddr": "서울 구로구 공원로6나길 39-1 ",
      "addr": "서울 구로구 구로동 29-21"
    },
    {
      "no": 3,
      "storeName": "다모아복권명당",
      "lat": 37.4933235,
      "lng": 126.8443646,
      "roadAddr": "서울 구로구 서해안로30길 13-7",
      "addr": "서울 구로구 오류동 137-46번지"
    },
    {
      "no": 4,
      "storeName": "다모아복권",
      "lat": 37.4959262,
      "lng": 126.8428066,
      "roadAddr": "서울 구로구 경인로19길 4",
      "addr": "서울 구로구 오류동 315-14번지"
    },
    {
      "no": 5,
      "storeName": "팡팡복권방",
      "lat": 37.5580336,
      "lng": 126.9783914,
      "roadAddr": "서울 중구 퇴계로6길 5",
      "addr": "서울 중구 회현동1가 194-11번지"
    },
    {
      "no": 6,
      "storeName": "노다지복권방",
      "lat": 37.6043268,
      "lng": 127.042519,
      "roadAddr": "서울 성북구 화랑로13길 20",
      "addr": "서울 성북구 하월곡동 21-103번지"
    },
    {
      "no": 7,
      "storeName": "한경종합광고",
      "lat": 37.5039358,
      "lng": 127.0885766,
      "roadAddr": "서울 송파구 백제고분로 198 정민빌딩",
      "addr": "서울 송파구 삼전동 28-8"
    },
    {
      "no": 8,
      "storeName": "노다지복권방",
      "lat": 37.4837315,
      "lng": 127.0379194,
      "roadAddr": "서울 서초구 남부순환로356길 26 ",
      "addr": "서울 서초구 양재동 11-87"
    },
    {
      "no": 9,
      "storeName": "하이로또",
      "lat": 37.4519218,
      "lng": 126.906367,
      "roadAddr": "서울 금천구 금하로 686 ",
      "addr": "서울 금천구 시흥동 908-2"
    },
    {
      "no": 10,
      "storeName": "대박찬스",
      "lat": 37.6258036,
      "lng": 127.0240314,
      "roadAddr": "서울 강북구 솔매로 105-1",
      "addr": "서울 강북구 미아동 224-58번지"
    },
    {
      "no": 12,
      "storeName": "복권",
      "roadAddr": "서울 중구 을지로 지하 58",
      "addr": "서울 중구 을지로2가 9-7번지"
    },
    {
      "no": 13,
      "storeName": "행운마트",
      "lat": 37.5642276,
      "lng": 126.9938871,
      "roadAddr": "서울 중구 마른내로 54-1",
      "addr": "서울 중구 인현동1가 97-2번지"
    },
    {
      "no": 14,
      "storeName": "대지사",
      "lat": 37.5643624,
      "lng": 127.0303052,
      "roadAddr": "서울 성동구 왕십리로 362 ",
      "addr": "서울 성동구 도선동 363-1"
    },
    {
      "no": 15,
      "storeName": "넘보원 마트",
      "lat": 37.6777,
      "lng": 127.0447015,
      "roadAddr": "서울 도봉구 도봉로165길 2",
      "addr": "서울 도봉구 도봉1동 596-24번지"
    },
    {
      "no": 16,
      "storeName": "수연식품(대박찬스)",
      "lat": 37.5822938,
      "lng": 127.0894102,
      "roadAddr": "서울 중랑구 면목로48길 11",
      "addr": "서울 중랑구 면목동 458-120번지"
    },
    {
      "no": 17,
      "storeName": "복권",
      "lat": 37.5928569,
      "lng": 127.0743977,
      "roadAddr": "서울 중랑구 망우로30길 8",
      "addr": "서울 중랑구 상봉동 136-50번지"
    },
    {
      "no": 18,
      "storeName": "복권나라",
      "lat": 37.5003682,
      "lng": 127.0950454,
      "roadAddr": "서울 송파구 백제고분로32길 23",
      "addr": "서울 송파구 삼전동 175번지"
    },
    {
      "no": 19,
      "storeName": "코사마트독산점",
      "lat": 37.4689113,
      "lng": 126.9015073,
      "roadAddr": "서울 금천구 독산로75길 15 ",
      "addr": "서울 금천구 독산동 1018-26"
    },
    {
      "no": 20,
      "storeName": "스타공인중개사사무소",
      "lat": 37.6051675,
      "lng": 126.9605547,
      "roadAddr": "서울 종로구 진흥로 484",
      "addr": "서울 종로구 신영동 240번지"
    },
    {
      "no": 21,
      "storeName": "코사마트 평창점",
      "lat": 37.606216,
      "lng": 126.9666152,
      "roadAddr": "서울 종로구 평창11길 5",
      "addr": "서울 종로구 평창동 339번지"
    },
    {
      "no": 22,
      "storeName": "코사마트",
      "lat": 37.5000947,
      "lng": 126.8904472,
      "roadAddr": "서울 구로구 공원로 35",
      "addr": "서울 구로구 구로5동 108-2번지"
    },
    {
      "no": 23,
      "storeName": "신림용꿈돼지꿈",
      "lat": 37.4798463,
      "lng": 126.9575783,
      "roadAddr": "서울 관악구 남부순환로 1869 ",
      "addr": "서울 관악구 봉천동 1673-16"
    },
    {
      "no": 24,
      "storeName": "산성슈퍼",
      "lat": 37.4903484,
      "lng": 127.1572739,
      "roadAddr": "서울 송파구 성내천로63길 6 ",
      "addr": "서울 송파구 거여동 577"
    },
    {
      "no": 25,
      "storeName": "복권명당",
      "lat": 37.4817277,
      "lng": 126.9424689,
      "roadAddr": "서울 관악구 장군봉1길 43 ",
      "addr": "서울 관악구 봉천동 927-20"
    },
    {
      "no": 26,
      "storeName": "복권세계",
      "lat": 37.4823412,
      "lng": 126.8874421,
      "roadAddr": "서울 구로구 우마길 4",
      "addr": "서울 구로구 가리봉동 124-2번지"
    },
    {
      "no": 27,
      "storeName": "히딩크복권방",
      "lat": 37.533899,
      "lng": 127.0812273,
      "roadAddr": "서울 광진구 자양로13길 62",
      "addr": "서울 광진구 자양동 623-28번지"
    },
    {
      "no": 28,
      "storeName": "영광생활유통",
      "lat": 37.4662659,
      "lng": 126.8934608,
      "roadAddr": "서울 금천구 범안로 1186 ",
      "addr": "서울 금천구 독산동 1006-19"
    },
    {
      "no": 29,
      "storeName": "복권만화",
      "lat": 37.4884264,
      "lng": 127.0141123,
      "roadAddr": "서울 서초구 사임당로 39",
      "addr": "서울 서초구 서초동 1578-5"
    },
    {
      "no": 30,
      "storeName": "사과나무",
      "lat": 37.564433,
      "lng": 127.0017889,
      "roadAddr": "서울 중구 마른내로 124",
      "addr": "서울 중구 오장동 206-37번지"
    },
    {
      "no": 31,
      "storeName": "하이로또복권방",
      "lat": 37.5611404,
      "lng": 127.0118831,
      "roadAddr": "서울 중구 청구로14길 3",
      "addr": "서울 중구 신당동 387-60번지"
    },
    {
      "no": 32,
      "storeName": "대박복권방",
      "lat": 37.5650409,
      "lng": 127.0157893,
      "roadAddr": "서울 중구 퇴계로 398",
      "addr": "서울 중구 무학동 11-2번지"
    },
    {
      "no": 33,
      "storeName": "행운복권방",
      "lat": 37.5635336,
      "lng": 127.0148576,
      "roadAddr": "서울 중구 다산로35길 11",
      "addr": "서울 중구 신당동 241-5번지"
    },
    {
      "no": 34,
      "storeName": "짱복권",
      "lat": 37.5713332,
      "lng": 127.007901,
      "roadAddr": "서울 종로구 종로 269",
      "addr": "서울 종로구 종로6가 93-1"
    },
    {
      "no": 35,
      "storeName": "주택복권사랑방",
      "lat": 37.5009708,
      "lng": 126.8746491,
      "roadAddr": "서울 구로구 경인로53길 15",
      "addr": "서울 구로구 구로동 1258번지"
    },
    {
      "no": 36,
      "storeName": "로또샹스카페",
      "lat": 37.4793582,
      "lng": 126.8918968,
      "roadAddr": "서울 구로구 남부순환로105길 14",
      "addr": "서울 구로구 가리봉동 135-68번지"
    },
    {
      "no": 37,
      "storeName": "복권마을",
      "lat": 37.4853561,
      "lng": 126.8860533,
      "roadAddr": "서울 구로구 구로동로 72",
      "addr": "서울 구로구 구로4동 805-20번지"
    },
    {
      "no": 38,
      "storeName": "복권명가",
      "lat": 37.4880157,
      "lng": 126.8565118,
      "roadAddr": "서울 구로구 개봉로 26",
      "addr": "서울 구로구 개봉동 403-165번지"
    },
    {
      "no": 39,
      "storeName": "잭팟 복권방",
      "lat": 37.5844179,
      "lng": 127.0476225,
      "roadAddr": "서울 동대문구 왕산로43길 36",
      "addr": "서울 동대문구 청량리동 53-20"
    },
    {
      "no": 40,
      "storeName": "노다지복권방",
      "lat": 37.5763336,
      "lng": 127.0239582,
      "roadAddr": "서울 동대문구 한빛로 1-1",
      "addr": "서울 동대문구 신설동 84-1번지"
    },
    {
      "no": 41,
      "storeName": "샘터",
      "lat": 37.603156,
      "lng": 127.0658773,
      "roadAddr": "서울 동대문구 신이문로 33",
      "addr": "서울 동대문구 이문동 237-107번지"
    },
    {
      "no": 42,
      "storeName": "노다지 노원역점 복권방",
      "lat": 37.6562415,
      "lng": 127.0637878,
      "roadAddr": "서울 노원구 상계로 78",
      "addr": "서울 노원구 상계동 340-1번지"
    },
    {
      "no": 43,
      "storeName": "복권방(천하명당)",
      "lat": 37.5565532,
      "lng": 127.0274496,
      "roadAddr": "서울 성동구 행당로 75",
      "addr": "서울 성동구 행당동 347번지"
    },
    {
      "no": 44,
      "storeName": "복권클럽",
      "lat": 37.5479762,
      "lng": 127.0242565,
      "roadAddr": "서울 성동구 독서당로 318 ",
      "addr": "서울 성동구 금호동4가 147"
    },
    {
      "no": 45,
      "storeName": "신성사",
      "lat": 37.4982702,
      "lng": 126.9080224,
      "roadAddr": "서울 영등포구 신길로 63 ",
      "addr": "서울 영등포구 신길동 448-3"
    },
    {
      "no": 46,
      "storeName": "행운의사랑방",
      "lat": 37.5157199,
      "lng": 126.8915924,
      "roadAddr": "서울 영등포구 도림로 465",
      "addr": "서울 영등포구 문래동4가 6-1번지"
    },
    {
      "no": 47,
      "storeName": "왕대박",
      "lat": 37.5127802,
      "lng": 126.9236304,
      "roadAddr": "서울 영등포구 영등포로 412",
      "addr": "서울 영등포구 신길동 1321번지"
    },
    {
      "no": 48,
      "storeName": "복권마을",
      "lat": 37.5045833,
      "lng": 126.9036152,
      "roadAddr": "서울 영등포구 가마산로 421-2",
      "addr": "서울 영등포구 신길동 347-220번지"
    },
    {
      "no": 49,
      "storeName": "복권천국",
      "lat": 37.4877214,
      "lng": 126.992871,
      "roadAddr": "서울 서초구 서초대로 97",
      "addr": "서울 서초구 방배4동 874-7번지"
    },
    {
      "no": 50,
      "storeName": "천하명당복권방",
      "lat": 37.5987843,
      "lng": 126.9134725,
      "roadAddr": "서울 은평구 은평로 51",
      "addr": "서울 은평구 신사동 3-11번지"
    },
    {
      "no": 51,
      "storeName": "행운복권방",
      "lat": 37.619819,
      "lng": 126.9233602,
      "roadAddr": "서울 은평구 연서로 258 ",
      "addr": "서울 은평구 불광동 320-1"
    },
    {
      "no": 52,
      "storeName": "행운복권방",
      "lat": 37.6000102,
      "lng": 126.9190713,
      "roadAddr": "서울 은평구 은평로 101",
      "addr": "서울 은평구 응암동 90-14번지"
    },
    {
      "no": 53,
      "storeName": "복권전문점",
      "lat": 37.6674976,
      "lng": 127.0399306,
      "roadAddr": "서울 도봉구 도당로 123-1",
      "addr": "서울 도봉구 방학1동 658-27번지"
    },
    {
      "no": 54,
      "storeName": "나눔",
      "lat": 37.6661539,
      "lng": 127.0348862,
      "roadAddr": "서울 도봉구 도당로13길 34",
      "addr": "서울 도봉구 방학동 634번지"
    },
    {
      "no": 55,
      "storeName": "캐논종합",
      "lat": 37.5334635,
      "lng": 126.9621779,
      "roadAddr": "서울 용산구 청파로 101",
      "addr": "서울 용산구 한강로3가 1-3번지"
    },
    {
      "no": 56,
      "storeName": "노다지복권방",
      "lat": 37.5311699,
      "lng": 126.8374734,
      "roadAddr": "서울 양천구 월정로 137",
      "addr": "서울 양천구 신월1동 116-14번지"
    },
    {
      "no": 57,
      "storeName": "복권천국",
      "lat": 37.5682776,
      "lng": 126.813003,
      "roadAddr": "서울 강서구 방화대로33길 66",
      "addr": "서울 강서구 방화동 249-110번지"
    },
    {
      "no": 58,
      "storeName": "신명",
      "lat": 37.5624644,
      "lng": 126.8084821,
      "roadAddr": "서울 강서구 방화동로3길 1",
      "addr": "서울 강서구 방화동 620-192번지"
    },
    {
      "no": 59,
      "storeName": "복권마을",
      "lat": 37.5529215,
      "lng": 126.8502658,
      "roadAddr": "서울 강서구 화곡로 321",
      "addr": "서울 강서구 화곡동 1105"
    },
    {
      "no": 60,
      "storeName": "아그네스",
      "lat": 37.5645254,
      "lng": 126.8115831,
      "roadAddr": "서울 강서구 방화동로 44",
      "addr": "서울 강서구 방화동 609-187번지"
    },
    {
      "no": 61,
      "storeName": "복권나라",
      "lat": 37.6014432,
      "lng": 127.0775738,
      "roadAddr": "서울 중랑구 봉화산로 30",
      "addr": "서울 중랑구 중화동 312-1번지"
    },
    {
      "no": 62,
      "storeName": "은혜",
      "lat": 37.5941104,
      "lng": 127.0834697,
      "roadAddr": "서울 중랑구 면목로91길 46",
      "addr": "서울 중랑구 상봉동 112-51번지"
    },
    {
      "no": 63,
      "storeName": "복권명당",
      "lat": 37.5842596,
      "lng": 127.0885949,
      "roadAddr": "서울 중랑구 면목로 362",
      "addr": "서울 중랑구 면목동 413-3번지"
    },
    {
      "no": 64,
      "storeName": "복권방",
      "lat": 37.5465715,
      "lng": 126.9454449,
      "roadAddr": "서울 마포구 백범로 127",
      "addr": "서울 마포구 염리동 154-10번지"
    },
    {
      "no": 65,
      "storeName": "복권천국방",
      "lat": 37.554236,
      "lng": 126.9123878,
      "roadAddr": "서울 마포구 동교로 92",
      "addr": "서울 마포구 서교동 480-1번지"
    },
    {
      "no": 66,
      "storeName": "복권백화점",
      "lat": 37.5616061,
      "lng": 126.904769,
      "roadAddr": "서울 마포구 월드컵로 157",
      "addr": "서울 마포구 망원동 474-2번지"
    },
    {
      "no": 67,
      "storeName": "한삼인 홍제역점",
      "lat": 37.5892071,
      "lng": 126.9432497,
      "roadAddr": "서울 서대문구 통일로 457",
      "addr": "서울 서대문구 홍제동 330-60번지"
    },
    {
      "no": 68,
      "storeName": "복권마트",
      "lat": 37.5919666,
      "lng": 126.9449371,
      "roadAddr": "서울 서대문구 세검정로 31",
      "addr": "서울 서대문구 홍제동 265-5번지"
    },
    {
      "no": 69,
      "storeName": "행운복권방",
      "lat": 37.5574111,
      "lng": 126.952311,
      "roadAddr": "서울 서대문구 신촌로 235-1 ",
      "addr": "서울 서대문구 북아현동 220-43"
    },
    {
      "no": 70,
      "storeName": "노다지복권방",
      "lat": 37.5653389,
      "lng": 126.9659361,
      "roadAddr": "서울 서대문구 충정로 73",
      "addr": "서울 서대문구 충정로2가 124"
    },
    {
      "no": 71,
      "storeName": "복권세계",
      "lat": 37.4879344,
      "lng": 126.9121974,
      "roadAddr": "서울 동작구 신대방길 8",
      "addr": "서울 동작구 신대방동 618-26번지"
    },
    {
      "no": 72,
      "storeName": "복권명당",
      "lat": 37.4981061,
      "lng": 126.9292516,
      "roadAddr": "서울 동작구 국사봉길 26 ",
      "addr": "서울 동작구 신대방동 338-19"
    },
    {
      "no": 73,
      "storeName": "뉴현대칼라",
      "lat": 37.5028363,
      "lng": 126.9353927,
      "roadAddr": "서울 동작구 상도로 143 송암빌딩",
      "addr": "서울 동작구 상도동 191-1"
    },
    {
      "no": 74,
      "storeName": "복권나라",
      "lat": 37.498858,
      "lng": 126.9334048,
      "roadAddr": "서울 동작구 성대로 42 소망교회",
      "addr": "서울 동작구 상도동 256-42"
    },
    {
      "no": 75,
      "storeName": "복권명당",
      "lat": 37.5403972,
      "lng": 127.128434,
      "roadAddr": "서울 강동구 구천면로 214",
      "addr": "서울 강동구 천호3동 550-1번지"
    },
    {
      "no": 76,
      "storeName": "복권방",
      "lat": 37.533846,
      "lng": 127.1360918,
      "roadAddr": "서울 강동구 천호대로176길 10-3",
      "addr": "서울 강동구 성내동 245-32번지"
    },
    {
      "no": 77,
      "storeName": "단골집편의점",
      "lat": 37.5405765,
      "lng": 127.1262788,
      "roadAddr": "서울 강동구 구천면로 194 ",
      "addr": "서울 강동구 천호동 417-7"
    },
    {
      "no": 78,
      "storeName": "포인트",
      "lat": 37.5420022,
      "lng": 127.1243645,
      "roadAddr": "서울 강동구 올림픽로 677 ",
      "addr": "서울 강동구 천호동 354-5"
    },
    {
      "no": 79,
      "storeName": "삼정그린환경",
      "lat": 37.5274004,
      "lng": 127.135632,
      "roadAddr": "서울 강동구 양재대로 1355",
      "addr": "서울 강동구 성내3동 428-5번지"
    },
    {
      "no": 80,
      "storeName": "복드림복권방",
      "lat": 37.547495,
      "lng": 127.1339998,
      "roadAddr": "서울 강동구 상암로 99",
      "addr": "서울 강동구 암사1동 488-34번지"
    },
    {
      "no": 81,
      "storeName": "하늘담 복권",
      "lat": 37.4438361,
      "lng": 126.901495,
      "roadAddr": "서울 금천구 시흥대로 97 시흥유통상가",
      "addr": "서울 금천구 시흥동 984"
    },
    {
      "no": 82,
      "storeName": "복권방",
      "lat": 37.4421143,
      "lng": 126.9039556,
      "roadAddr": "서울 금천구 시흥대로 90 정송빌딩",
      "addr": "서울 금천구 시흥동 954-7"
    },
    {
      "no": 83,
      "storeName": "행운으뜸",
      "lat": 37.4686929,
      "lng": 126.9364841,
      "roadAddr": "서울 관악구 신림로17길 45",
      "addr": "서울 관악구 신림동 1537-14"
    },
    {
      "no": 84,
      "storeName": "대풍",
      "lat": 37.4849784,
      "lng": 126.915275,
      "roadAddr": "서울 관악구 조원로 116",
      "addr": "서울 관악구 신림동 513-1"
    },
    {
      "no": 85,
      "storeName": "로또담배",
      "lat": 37.4627402,
      "lng": 126.9192225,
      "roadAddr": "서울 관악구 난곡로 82 ",
      "addr": "서울 관악구 신림동 667-36"
    },
    {
      "no": 86,
      "storeName": "복권나라",
      "lat": 37.4828091,
      "lng": 126.9435149,
      "roadAddr": "서울 관악구 남부순환로 1739-9 ",
      "addr": "서울 관악구 봉천동 926-25"
    },
    {
      "no": 87,
      "storeName": "천하명당",
      "lat": 37.4745943,
      "lng": 126.9187404,
      "roadAddr": "서울 관악구 난우길 18",
      "addr": "서울 관악구 신림동 608-34"
    },
    {
      "no": 88,
      "storeName": "대박복권방",
      "lat": 37.4650948,
      "lng": 126.9036754,
      "roadAddr": "서울 금천구 독산로64길 18 ",
      "addr": "서울 금천구 독산동 378-235"
    },
    {
      "no": 89,
      "storeName": "천하명당복권방독산점",
      "lat": 37.4725437,
      "lng": 126.9022376,
      "roadAddr": "서울 금천구 독산로85길 16 ",
      "addr": "서울 금천구 독산동 989-16"
    },
    {
      "no": 90,
      "storeName": "복권나라",
      "lat": 37.4860271,
      "lng": 126.9398561,
      "roadAddr": "서울 관악구 은천로 40-1 ",
      "addr": "서울 관악구 봉천동 941-18"
    },
    {
      "no": 91,
      "storeName": "주택복권사랑방",
      "lat": 37.4864446,
      "lng": 126.913446,
      "roadAddr": "서울 관악구 난곡로 363-1 ",
      "addr": "서울 관악구 신림동 518-11"
    },
    {
      "no": 92,
      "storeName": "대박복권방",
      "lat": 37.6092027,
      "lng": 127.0589936,
      "roadAddr": "서울 성북구 돌곶이로 60",
      "addr": "서울 성북구 석관동 250-10번지"
    },
    {
      "no": 93,
      "storeName": "복권명당",
      "lat": 37.5552976,
      "lng": 127.0930152,
      "roadAddr": "서울 광진구 영화사로 59",
      "addr": "서울 광진구 중곡동 107-43"
    },
    {
      "no": 94,
      "storeName": "복권나라",
      "lat": 37.5544221,
      "lng": 127.0756153,
      "roadAddr": "서울 광진구 군자로 146 동진빌딩",
      "addr": "서울 광진구 군자동 66-3"
    },
    {
      "no": 95,
      "storeName": "복권방",
      "lat": 37.5377902,
      "lng": 127.085486,
      "roadAddr": "서울 광진구 자양로18길 34",
      "addr": "서울 광진구 구의1동 246-70번지"
    },
    {
      "no": 96,
      "storeName": "천하명당복권방",
      "lat": 37.5659658,
      "lng": 127.0841001,
      "roadAddr": "서울 광진구 능동로 413",
      "addr": "서울 광진구 중곡3동 167-3번지"
    },
    {
      "no": 97,
      "storeName": "대원복권방",
      "lat": 37.5713101,
      "lng": 127.0828924,
      "roadAddr": "서울 광진구 답십리로 382",
      "addr": "서울 광진구 중곡동 561-2번지"
    },
    {
      "no": 98,
      "storeName": "행운의집",
      "lat": 37.5469217,
      "lng": 127.0733741,
      "roadAddr": "서울 광진구 능동로19길 7 ",
      "addr": "서울 광진구 화양동 111-114"
    },
    {
      "no": 99,
      "storeName": "천하명당",
      "lat": 37.5020244,
      "lng": 127.1079241,
      "roadAddr": "서울 송파구 백제고분로40길 31",
      "addr": "서울 송파구 석촌동 294-5번지"
    },
    {
      "no": 100,
      "storeName": "럭키복권샵",
      "lat": 37.4996443,
      "lng": 127.151719,
      "roadAddr": "서울 송파구 성내천로 218",
      "addr": "서울 송파구 마천동 77-9번지"
    },
    {
      "no": 101,
      "storeName": "명지복권방",
      "lat": 37.4978579,
      "lng": 127.1462713,
      "roadAddr": "서울 송파구 거마로 55",
      "addr": "서울 송파구 거여1동 133-82번지"
    },
    {
      "no": 102,
      "storeName": "천하명당복권방",
      "lat": 37.5068189,
      "lng": 127.1082337,
      "roadAddr": "서울 송파구 백제고분로41길 7",
      "addr": "서울 송파구 송파1동 18-18번지"
    },
    {
      "no": 103,
      "storeName": "광림마트",
      "lat": 37.4930827,
      "lng": 127.0421212,
      "roadAddr": "서울 강남구 도곡로 213 마고빌딩",
      "addr": "서울 강남구 역삼동 788-35"
    },
    {
      "no": 104,
      "storeName": "강남상회",
      "lat": 37.5074669,
      "lng": 127.0334242,
      "roadAddr": "서울 강남구 봉은사로 179 H타워",
      "addr": "서울 강남구 논현동 192-19"
    },
    {
      "no": 105,
      "storeName": "달랑슈퍼",
      "lat": 37.5052869,
      "lng": 127.0595491,
      "roadAddr": "서울 강남구 삼성로82길 22 ",
      "addr": "서울 강남구 대치동 955-1"
    },
    {
      "no": 106,
      "storeName": "다온 편의점",
      "lat": 37.6284803,
      "lng": 127.039427,
      "roadAddr": "서울 강북구 오현로 190 ",
      "addr": "서울 강북구 번동 306-11"
    },
    {
      "no": 107,
      "storeName": "보경식품",
      "lat": 37.6275081,
      "lng": 127.0254311,
      "roadAddr": "서울 강북구 도봉로 211",
      "addr": "서울 강북구 미아동 207-2번지"
    },
    {
      "no": 108,
      "storeName": "동호슈퍼",
      "lat": 37.5529638,
      "lng": 127.0117354,
      "roadAddr": "서울 중구 동호로 163",
      "addr": "서울 중구 신당동 372-31번지"
    },
    {
      "no": 109,
      "storeName": "하나더마트",
      "lat": 37.5643906,
      "lng": 127.021941,
      "roadAddr": "서울 중구 퇴계로90길 22",
      "addr": "서울 중구 신당동 152-7번지"
    },
    {
      "no": 110,
      "storeName": "하임마트",
      "lat": 37.5659248,
      "lng": 127.0208148,
      "roadAddr": "서울 중구 퇴계로 439-4",
      "addr": "서울 중구 황학동 714번지"
    },
    {
      "no": 111,
      "storeName": "을지상회",
      "lat": 37.5680983,
      "lng": 127.0064646,
      "roadAddr": "서울 중구 장충단로13길 43",
      "addr": "서울 중구 을지로6가 18-188번지"
    },
    {
      "no": 112,
      "storeName": "로또복권방",
      "lat": 37.5649581,
      "lng": 126.990275,
      "roadAddr": "서울 중구 마른내로 21",
      "addr": "서울 중구 저동2가 17-1번지"
    },
    {
      "no": 113,
      "storeName": "남산골",
      "lat": 37.5615793,
      "lng": 126.9965795,
      "roadAddr": "서울 중구 퇴계로 222-1",
      "addr": "서울 중구 필동2가 37-11번지"
    },
    {
      "no": 114,
      "storeName": "한밭식품",
      "lat": 37.5671884,
      "lng": 126.9978838,
      "roadAddr": "서울 중구 창경궁로 53-1 ",
      "addr": "서울 중구 을지로4가 85-1"
    },
    {
      "no": 115,
      "storeName": "승보슈퍼",
      "lat": 37.5701696,
      "lng": 127.0183959,
      "roadAddr": "서울 중구 마장로9길 49-19 ",
      "addr": "서울 중구 황학동 17"
    },
    {
      "no": 116,
      "storeName": "자현당",
      "lat": 37.5778436,
      "lng": 126.9858289,
      "roadAddr": "서울 종로구 북촌로 10",
      "addr": "서울 종로구 재동 84-16"
    },
    {
      "no": 117,
      "storeName": "해피복권방",
      "lat": 37.599738,
      "lng": 126.9590915,
      "roadAddr": "서울 종로구 자하문로 306 ",
      "addr": "서울 종로구 홍지동 99-3"
    },
    {
      "no": 118,
      "storeName": "비원복권",
      "lat": 37.57444,
      "lng": 126.9912018,
      "roadAddr": "서울 종로구 돈화문로 66",
      "addr": "서울 종로구 와룡동 68"
    },
    {
      "no": 119,
      "storeName": "emart24 포이사거리점",
      "lat": 37.4781815,
      "lng": 127.0449992,
      "roadAddr": "서울 강남구 개포로 202 석인빌딩",
      "addr": "서울 강남구 개포동 1238"
    },
    {
      "no": 120,
      "storeName": "대박나라",
      "lat": 37.4747519,
      "lng": 127.107034,
      "roadAddr": "서울 강남구 밤고개로 219",
      "addr": "서울 강남구 자곡동 56-120"
    },
    {
      "no": 121,
      "storeName": "만물",
      "lat": 37.5050635,
      "lng": 127.0399234,
      "roadAddr": "서울 강남구 테헤란로37길 42 ",
      "addr": "서울 강남구 역삼동 674"
    },
    {
      "no": 122,
      "storeName": "파랑새식품",
      "lat": 37.5198138,
      "lng": 127.0263227,
      "roadAddr": "서울 강남구 논현로151길 23 ",
      "addr": "서울 강남구 신사동 563-1"
    },
    {
      "no": 123,
      "storeName": "광림마트",
      "lat": 37.5186405,
      "lng": 127.0275051,
      "roadAddr": "서울 강남구 도산대로26길 8 ",
      "addr": "서울 강남구 논현동 7-10"
    },
    {
      "no": 124,
      "storeName": "진흥슈퍼",
      "lat": 37.5198352,
      "lng": 127.0309691,
      "roadAddr": "서울 강남구 논현로150길 31 논현동빌딩",
      "addr": "서울 강남구 논현동 61-19"
    },
    {
      "no": 125,
      "storeName": "현대슈퍼",
      "lat": 37.4892391,
      "lng": 127.0679694,
      "roadAddr": "서울 강남구 개포로 508",
      "addr": "서울 강남구 개포동 186-15"
    },
    {
      "no": 126,
      "storeName": "형제식품",
      "lat": 37.5142533,
      "lng": 127.0345628,
      "roadAddr": "서울 강남구 학동로38길 11 ",
      "addr": "서울 강남구 논현동 211"
    },
    {
      "no": 127,
      "storeName": "경남마트",
      "lat": 37.5041462,
      "lng": 126.8561914,
      "roadAddr": "서울 구로구 고척로52길 21",
      "addr": "서울 구로구 고척2동 306번지"
    },
    {
      "no": 128,
      "storeName": "천하명당",
      "lat": 37.4899944,
      "lng": 126.8403404,
      "roadAddr": "서울 구로구 오류로 60 성진빌딩",
      "addr": "서울 구로구 오류동 170-11"
    },
    {
      "no": 129,
      "storeName": "과자종합상사",
      "lat": 37.5014788,
      "lng": 126.85087,
      "roadAddr": "서울 구로구 경인로33길 82",
      "addr": "서울 구로구 고척2동 269-5번지"
    },
    {
      "no": 130,
      "storeName": "공단 복권방",
      "lat": 37.4803247,
      "lng": 126.8900689,
      "roadAddr": "서울 구로구 디지털로19길 12",
      "addr": "서울 구로구 가리봉동 131-22"
    },
    {
      "no": 131,
      "storeName": "현진식품",
      "lat": 37.5007704,
      "lng": 126.8638719,
      "roadAddr": "서울 구로구 중앙로 32",
      "addr": "서울 구로구 고척1동 52-346번지"
    },
    {
      "no": 132,
      "storeName": "24시미니슈퍼",
      "lat": 37.4906815,
      "lng": 126.8936197,
      "roadAddr": "서울 구로구 도림로 94",
      "addr": "서울 구로구 구로3동 147-6번지"
    },
    {
      "no": 133,
      "storeName": "제일복권",
      "lat": 37.5898561,
      "lng": 127.0573619,
      "roadAddr": "서울 동대문구 회기로 194",
      "addr": "서울 동대문구 휘경동 319-1번지"
    },
    {
      "no": 134,
      "storeName": "J수퍼",
      "lat": 37.5810869,
      "lng": 127.0460875,
      "roadAddr": "서울 동대문구 왕산로 211 ",
      "addr": "서울 동대문구 청량리동 258"
    },
    {
      "no": 135,
      "storeName": "복권천국",
      "lat": 37.5674271,
      "lng": 127.0574665,
      "roadAddr": "서울 동대문구 전농로2나길 15",
      "addr": "서울 동대문구 답십리동 488-60"
    },
    {
      "no": 136,
      "storeName": "한성식품",
      "lat": 37.5635122,
      "lng": 126.9904222,
      "roadAddr": "서울 중구 수표로 26",
      "addr": "서울 중구 저동2가 48-7번지"
    },
    {
      "no": 137,
      "storeName": "무교식품",
      "lat": 37.5682206,
      "lng": 126.9816321,
      "roadAddr": "서울 중구 다동길 43 한외빌딩",
      "addr": "서울 중구 다동 70"
    },
    {
      "no": 138,
      "storeName": "럭키복권방",
      "lat": 37.655011,
      "lng": 127.068007,
      "roadAddr": "서울 노원구 노원로 428",
      "addr": "서울 노원구 상계동 1282번지"
    },
    {
      "no": 139,
      "storeName": "평강슈퍼",
      "lat": 37.6543036,
      "lng": 127.0576243,
      "roadAddr": "서울 노원구 노해로75길 14-2",
      "addr": "서울 노원구 상계동 704번지"
    },
    {
      "no": 140,
      "storeName": "굿데이",
      "lat": 37.6175151,
      "lng": 127.0743905,
      "roadAddr": "서울 노원구 화랑로 421",
      "addr": "서울 노원구 공릉동 683-16번지"
    },
    {
      "no": 141,
      "storeName": "우리슈퍼",
      "lat": 37.5592988,
      "lng": 127.0334047,
      "roadAddr": "서울 성동구 행당로17길 9",
      "addr": "서울 성동구 행당동 309-9"
    },
    {
      "no": 142,
      "storeName": "행당상회",
      "lat": 37.565662,
      "lng": 127.0367149,
      "roadAddr": "서울 성동구 고산자로 290-3",
      "addr": "서울 성동구 행당1동 191-3번지"
    },
    {
      "no": 143,
      "storeName": "대일슈퍼",
      "lat": 37.5691913,
      "lng": 127.0371464,
      "roadAddr": "서울 성동구 고산자로 331",
      "addr": "서울 성동구 마장동 568-1"
    },
    {
      "no": 144,
      "storeName": "무지개슈퍼",
      "lat": 37.5139755,
      "lng": 126.9204443,
      "roadAddr": "서울 영등포구 영등포로 379-1",
      "addr": "서울 영등포구 신길동 97-82"
    },
    {
      "no": 145,
      "storeName": "영일식품",
      "lat": 37.526235,
      "lng": 126.8978509,
      "roadAddr": "서울 영등포구 당산로32길 10 ",
      "addr": "서울 영등포구 당산동3가 228-1"
    },
    {
      "no": 146,
      "storeName": "신세계슈퍼",
      "lat": 37.4978102,
      "lng": 126.8983516,
      "roadAddr": "서울 영등포구 대림로 191",
      "addr": "서울 영등포구 대림동 739-1번지"
    },
    {
      "no": 147,
      "storeName": "유진식품",
      "lat": 37.4980511,
      "lng": 126.9045271,
      "roadAddr": "서울 영등포구 도림로 220",
      "addr": "서울 영등포구 신길동 436-26번지"
    },
    {
      "no": 148,
      "storeName": "대창청과슈퍼",
      "lat": 37.5102345,
      "lng": 126.9103173,
      "roadAddr": "서울 영등포구 신길로 203 ",
      "addr": "서울 영등포구 신길동 221-39"
    },
    {
      "no": 149,
      "storeName": "G마트",
      "lat": 37.4916582,
      "lng": 126.9021983,
      "roadAddr": "서울 영등포구 디지털로 387",
      "addr": "서울 영등포구 대림동 862-6번지"
    },
    {
      "no": 150,
      "storeName": "우선식품",
      "lat": 37.5125008,
      "lng": 126.9166887,
      "roadAddr": "서울 영등포구 도신로 231-2",
      "addr": "서울 영등포구 신길동 163-5번지"
    },
    {
      "no": 151,
      "storeName": "행복",
      "lat": 37.4827551,
      "lng": 127.040597,
      "roadAddr": "서울 서초구 강남대로30길 63 초석빌딩",
      "addr": "서울 서초구 양재동 7-43"
    },
    {
      "no": 152,
      "storeName": "평화슈퍼",
      "lat": 37.6163163,
      "lng": 126.9190392,
      "roadAddr": "서울 은평구 연서로 198-1",
      "addr": "서울 은평구 대조동 219-2번지"
    },
    {
      "no": 153,
      "storeName": "갈현토큰",
      "lat": 37.6237829,
      "lng": 126.9196271,
      "roadAddr": "서울 은평구 통일로 905 ",
      "addr": "서울 은평구 갈현동 392-5"
    },
    {
      "no": 154,
      "storeName": "수색마트 복권방",
      "lat": 37.5822583,
      "lng": 126.8962904,
      "roadAddr": "서울 은평구 수색로 256 ",
      "addr": "서울 은평구 수색동 106-1"
    },
    {
      "no": 155,
      "storeName": "월드24시",
      "lat": 37.619249,
      "lng": 126.9198115,
      "roadAddr": "서울 은평구 통일로 855-15",
      "addr": "서울 은평구 갈현1동 398-1번지"
    },
    {
      "no": 156,
      "storeName": "영훈슈퍼마켓",
      "lat": 37.6378092,
      "lng": 127.0376438,
      "roadAddr": "서울 도봉구 덕릉로 222",
      "addr": "서울 도봉구 창3동 557-5번지"
    },
    {
      "no": 157,
      "storeName": "한아름유통",
      "lat": 37.6508386,
      "lng": 127.0255004,
      "roadAddr": "서울 도봉구 노해로41길 38-17",
      "addr": "서울 도봉구 쌍문동 281-52번지"
    },
    {
      "no": 158,
      "storeName": "국민슈퍼",
      "lat": 37.6570481,
      "lng": 127.0401219,
      "roadAddr": "서울 도봉구 도봉로 588",
      "addr": "서울 도봉구 창5동 731-55번지"
    },
    {
      "no": 159,
      "storeName": "돼지슈퍼",
      "lat": 37.6591158,
      "lng": 127.0141599,
      "roadAddr": "서울 도봉구 삼양로 628",
      "addr": "서울 도봉구 쌍문동 512-23번지"
    },
    {
      "no": 160,
      "storeName": "오성할인마트",
      "lat": 37.6507192,
      "lng": 127.035617,
      "roadAddr": "서울 도봉구 도봉로 505",
      "addr": "서울 도봉구 쌍문동 88-127번지"
    },
    {
      "no": 161,
      "storeName": "럭키슈퍼",
      "lat": 37.550611,
      "lng": 126.9773898,
      "roadAddr": "서울 용산구 후암로 52 ",
      "addr": "서울 용산구 후암동 27-14"
    },
    {
      "no": 162,
      "storeName": "델타슈퍼",
      "lat": 37.5296843,
      "lng": 126.9702253,
      "roadAddr": "서울 용산구 한강대로38가길 11",
      "addr": "서울 용산구 한강로2가 153-5"
    },
    {
      "no": 163,
      "storeName": "복권세상",
      "lat": 37.531908,
      "lng": 126.8337009,
      "roadAddr": "서울 양천구 곰달래로5길 26",
      "addr": "서울 양천구 신월동 110-18번지"
    },
    {
      "no": 164,
      "storeName": "복권판매소",
      "lat": 37.5187137,
      "lng": 126.8532203,
      "roadAddr": "서울 양천구 중앙로 251 ",
      "addr": "서울 양천구 신정동 1182-2"
    },
    {
      "no": 165,
      "storeName": "신정복권",
      "lat": 37.5211436,
      "lng": 126.8737457,
      "roadAddr": "서울 양천구 신목로 70-1 신통빌딩",
      "addr": "서울 양천구 신정동 89-29"
    },
    {
      "no": 166,
      "storeName": "뉴신명",
      "lat": 37.5333581,
      "lng": 126.8639758,
      "roadAddr": "서울 양천구 목동중앙서로7가길 39",
      "addr": "서울 양천구 목동 792-1"
    },
    {
      "no": 167,
      "storeName": "호야식품",
      "lat": 37.5174717,
      "lng": 126.8543217,
      "roadAddr": "서울 양천구 중앙로 234",
      "addr": "서울 양천구 신정동 1052-1번지"
    },
    {
      "no": 168,
      "storeName": "농심가슈퍼마트",
      "lat": 37.5407045,
      "lng": 126.869035,
      "roadAddr": "서울 양천구 목동중앙본로 54 ",
      "addr": "서울 양천구 목동 234-4"
    },
    {
      "no": 169,
      "storeName": "삼육구마트",
      "lat": 37.5327867,
      "lng": 126.8655353,
      "roadAddr": "서울 양천구 목동중앙서로 15-1",
      "addr": "서울 양천구 목동 790-21"
    },
    {
      "no": 170,
      "storeName": "또와식품",
      "lat": 37.5501074,
      "lng": 126.872858,
      "roadAddr": "서울 강서구 양천로 694",
      "addr": "서울 강서구 염창동 264-8번지"
    },
    {
      "no": 171,
      "storeName": "현대마트",
      "lat": 37.5473516,
      "lng": 126.8769814,
      "roadAddr": "서울 강서구 공항대로 649",
      "addr": "서울 강서구 염창동 283-12번지"
    },
    {
      "no": 172,
      "storeName": "강서스포츠",
      "lat": 37.5306737,
      "lng": 126.8503251,
      "roadAddr": "서울 강서구 곰달래로 156-1",
      "addr": "서울 강서구 화곡동 896-1"
    },
    {
      "no": 173,
      "storeName": "길로또복권",
      "lat": 37.5489865,
      "lng": 126.8632576,
      "roadAddr": "서울 강서구 등촌로 215",
      "addr": "서울 강서구 등촌2동 509-2번지"
    },
    {
      "no": 174,
      "storeName": "화곡본마트",
      "lat": 37.5424875,
      "lng": 126.8441365,
      "roadAddr": "서울 강서구 까치산로4길 3",
      "addr": "서울 강서구 화곡본동 98-60번지"
    },
    {
      "no": 175,
      "storeName": "씨유 개화산역점",
      "lat": 37.5728106,
      "lng": 126.8060166,
      "roadAddr": "서울 강서구 양천로 19",
      "addr": "서울 강서구 방화동 498-4"
    },
    {
      "no": 176,
      "storeName": "새로나슈퍼",
      "lat": 37.528749,
      "lng": 126.8477249,
      "roadAddr": "서울 강서구 강서로5나길 10",
      "addr": "서울 강서구 화곡1동 904-10번지"
    },
    {
      "no": 177,
      "storeName": "진영슈퍼",
      "lat": 37.5370345,
      "lng": 126.8632544,
      "roadAddr": "서울 강서구 등촌로 79",
      "addr": "서울 강서구 등촌동 565-6"
    },
    {
      "no": 178,
      "storeName": "강서슈퍼",
      "lat": 37.5529787,
      "lng": 126.863509,
      "roadAddr": "서울 강서구 공항대로59길 29",
      "addr": "서울 강서구 등촌동 646-32번지"
    },
    {
      "no": 179,
      "storeName": "금강식품",
      "lat": 37.5443703,
      "lng": 126.8373956,
      "roadAddr": "서울 강서구 강서로 207 영신빌딩",
      "addr": "서울 강서구 화곡동 1024-10"
    },
    {
      "no": 180,
      "storeName": "바이더웨이",
      "lat": 37.5954926,
      "lng": 127.058101,
      "roadAddr": "서울 동대문구 회기로25길 133",
      "addr": "서울 동대문구 이문2동 283-12번지"
    },
    {
      "no": 181,
      "storeName": "하나로슈퍼",
      "lat": 37.5827498,
      "lng": 127.038865,
      "roadAddr": "서울 동대문구 고산자로 484",
      "addr": "서울 동대문구 제기동 844번지"
    },
    {
      "no": 182,
      "storeName": "엔마트",
      "lat": 37.5754311,
      "lng": 127.0713102,
      "roadAddr": "서울 동대문구 장한로31길 10",
      "addr": "서울 동대문구 장안2동 304-5번지"
    },
    {
      "no": 183,
      "storeName": "그린슈퍼",
      "lat": 37.5780534,
      "lng": 127.0387162,
      "roadAddr": "서울 동대문구 왕산로 138 ",
      "addr": "서울 동대문구 용두동 24-4"
    },
    {
      "no": 184,
      "storeName": "일등복권방",
      "lat": 37.5778732,
      "lng": 127.0588674,
      "roadAddr": "서울 동대문구 사가정로 125",
      "addr": "서울 동대문구 전농동 38-12번지"
    },
    {
      "no": 185,
      "storeName": "경성식품",
      "lat": 37.5904274,
      "lng": 127.0599821,
      "roadAddr": "서울 동대문구 망우로21길 52",
      "addr": "서울 동대문구 휘경1동 192-5번지"
    },
    {
      "no": 186,
      "storeName": "위드미 외대이문점",
      "lat": 37.5973834,
      "lng": 127.064941,
      "roadAddr": "서울 동대문구 외대역동로 106",
      "addr": "서울 동대문구 이문1동 120-36번지"
    },
    {
      "no": 187,
      "storeName": "신영슈퍼",
      "lat": 37.4893292,
      "lng": 127.1008468,
      "roadAddr": "서울 강남구 광평로51길 27",
      "addr": "서울 강남구 수서동 708번지"
    },
    {
      "no": 188,
      "storeName": "삼성마트",
      "lat": 37.5132097,
      "lng": 127.0430251,
      "roadAddr": "서울 강남구 선릉로 636",
      "addr": "서울 강남구 삼성동 34-3"
    },
    {
      "no": 189,
      "storeName": "그린수퍼",
      "lat": 37.5998297,
      "lng": 127.082466,
      "roadAddr": "서울 중랑구 동일로130길 42 ",
      "addr": "서울 중랑구 중화동 291-40"
    },
    {
      "no": 190,
      "storeName": "신안할인마트",
      "lat": 37.6141322,
      "lng": 127.0794961,
      "roadAddr": "서울 중랑구 공릉로2나길 44",
      "addr": "서울 중랑구 묵동 382번지"
    },
    {
      "no": 191,
      "storeName": "묵동식품",
      "lat": 37.6124742,
      "lng": 127.0770797,
      "roadAddr": "서울 중랑구 동일로 919",
      "addr": "서울 중랑구 묵동 238-11"
    },
    {
      "no": 192,
      "storeName": "서울복권방",
      "lat": 37.6027235,
      "lng": 127.0789937,
      "roadAddr": "서울 중랑구 동일로 809-1",
      "addr": "서울 중랑구 중화동 305-17번지"
    },
    {
      "no": 193,
      "storeName": "대박드림복권",
      "lat": 37.593979,
      "lng": 127.074805,
      "roadAddr": "서울 중랑구 망우로 203",
      "addr": "서울 중랑구 중화동 208-33번지"
    },
    {
      "no": 194,
      "storeName": "부안식품",
      "lat": 37.5881796,
      "lng": 127.0958996,
      "roadAddr": "서울 중랑구 용마산로 409",
      "addr": "서울 중랑구 면목동 20-51"
    },
    {
      "no": 195,
      "storeName": "우정상회",
      "lat": 37.5957119,
      "lng": 127.0933666,
      "roadAddr": "서울 중랑구 상봉로 110 ",
      "addr": "서울 중랑구 망우동 506-8"
    },
    {
      "no": 196,
      "storeName": "현대슈퍼",
      "lat": 37.5947975,
      "lng": 127.0953148,
      "roadAddr": "서울 중랑구 봉우재로 203-1",
      "addr": "서울 중랑구 망우본동 514-80번지"
    },
    {
      "no": 197,
      "storeName": "대구상회",
      "lat": 37.5429897,
      "lng": 126.9437697,
      "roadAddr": "서울 마포구 토정로31길 51",
      "addr": "서울 마포구 용강동 6-1번지"
    },
    {
      "no": 198,
      "storeName": "새한양슈퍼",
      "lat": 37.5719911,
      "lng": 126.9012653,
      "roadAddr": "서울 마포구 월드컵북로 262",
      "addr": "서울 마포구 성산동 446"
    },
    {
      "no": 199,
      "storeName": "명신사",
      "lat": 37.5572982,
      "lng": 126.9087136,
      "roadAddr": "서울 마포구 월드컵로 97",
      "addr": "서울 마포구 망원동 57-34번지"
    },
    {
      "no": 200,
      "storeName": "정원쇼핑",
      "lat": 37.5995754,
      "lng": 126.9484227,
      "roadAddr": "서울 서대문구 홍은중앙로 99",
      "addr": "서울 서대문구 홍은동 9-333번지"
    },
    {
      "no": 201,
      "storeName": "홍제삼거리마트",
      "lat": 37.5859161,
      "lng": 126.9469568,
      "roadAddr": "서울 서대문구 통일로 407",
      "addr": "서울 서대문구 홍제동 147-2번지"
    },
    {
      "no": 202,
      "storeName": "민영슈퍼",
      "lat": 37.5817546,
      "lng": 126.9130368,
      "roadAddr": "서울 서대문구 응암로 104",
      "addr": "서울 서대문구 북가좌동 292-11번지"
    },
    {
      "no": 203,
      "storeName": "강원슈퍼",
      "lat": 37.581639,
      "lng": 126.9355787,
      "roadAddr": "서울 서대문구 모래내로 355",
      "addr": "서울 서대문구 홍은동 277-18번지"
    },
    {
      "no": 204,
      "storeName": "제일슈퍼",
      "lat": 37.5803829,
      "lng": 126.9113059,
      "roadAddr": "서울 서대문구 응암로 79 문화빌딩",
      "addr": "서울 서대문구 북가좌동 309-3"
    },
    {
      "no": 205,
      "storeName": "굿타임",
      "lat": 37.5791494,
      "lng": 126.9235892,
      "roadAddr": "서울 서대문구 거북골로 39",
      "addr": "서울 서대문구 남가좌동 343-1"
    },
    {
      "no": 206,
      "storeName": "코사마트",
      "lat": 37.4997327,
      "lng": 126.9220764,
      "roadAddr": "서울 동작구 상도로 10-7 ",
      "addr": "서울 동작구 대방동 401-5"
    },
    {
      "no": 207,
      "storeName": "개미식품",
      "lat": 37.5132094,
      "lng": 126.9380558,
      "roadAddr": "서울 동작구 노량진로 110 ",
      "addr": "서울 동작구 노량진동 41-5"
    },
    {
      "no": 208,
      "storeName": "삼원미니슈퍼",
      "lat": 37.50012,
      "lng": 126.9308466,
      "roadAddr": "서울 동작구 상도로 93 ",
      "addr": "서울 동작구 상도동 328-7"
    },
    {
      "no": 209,
      "storeName": "상도편의점",
      "lat": 37.5027023,
      "lng": 126.9477266,
      "roadAddr": "서울 동작구 상도로 276 ",
      "addr": "서울 동작구 상도1동 745-1"
    },
    {
      "no": 210,
      "storeName": "신영상회",
      "lat": 37.5103934,
      "lng": 126.9399028,
      "roadAddr": "서울 동작구 장승배기로 143 ",
      "addr": "서울 동작구 노량진동 235-5"
    },
    {
      "no": 211,
      "storeName": "한냉매점",
      "lat": 37.5148693,
      "lng": 126.9368431,
      "roadAddr": "서울 동작구 노들로 674 노량진수산물도매시장",
      "addr": "서울 동작구 노량진동 13-6"
    },
    {
      "no": 212,
      "storeName": "인동상회",
      "lat": 37.6619876,
      "lng": 127.0731379,
      "roadAddr": "서울 노원구 한글비석로 396",
      "addr": "서울 노원구 상계5동 173-1번지"
    },
    {
      "no": 213,
      "storeName": "동아슈퍼",
      "lat": 37.661172,
      "lng": 127.0610225,
      "roadAddr": "서울 노원구 노원로 522",
      "addr": "서울 노원구 상계10동 673번지"
    },
    {
      "no": 214,
      "storeName": "우성슈퍼",
      "lat": 37.5507044,
      "lng": 127.1397792,
      "roadAddr": "서울 강동구 구천면로 371",
      "addr": "서울 강동구 암사동 421-6번지"
    },
    {
      "no": 215,
      "storeName": "삼익마트",
      "lat": 37.5466396,
      "lng": 127.1461712,
      "roadAddr": "서울 강동구 상암로 211",
      "addr": "서울 강동구 명일동 341-5번지"
    },
    {
      "no": 216,
      "storeName": "롯데마트",
      "lat": 37.5486364,
      "lng": 127.1730085,
      "roadAddr": "서울 강동구 상일로 17",
      "addr": "서울 강동구 상일동 342번지"
    },
    {
      "no": 217,
      "storeName": "동원마트",
      "lat": 37.5293543,
      "lng": 127.1351131,
      "roadAddr": "서울 강동구 풍성로 209",
      "addr": "서울 강동구 성내3동 412-6번지"
    },
    {
      "no": 218,
      "storeName": "그린슈퍼",
      "lat": 37.5401027,
      "lng": 127.1441998,
      "roadAddr": "서울 강동구 천중로52길 15",
      "addr": "서울 강동구 길동 355-1번지"
    },
    {
      "no": 219,
      "storeName": "시흥식품",
      "lat": 37.454916,
      "lng": 126.8988564,
      "roadAddr": "서울 금천구 시흥대로63길 13 ",
      "addr": "서울 금천구 시흥동 121-10"
    },
    {
      "no": 220,
      "storeName": "대성미니슈퍼",
      "lat": 37.4808506,
      "lng": 126.9076235,
      "roadAddr": "서울 관악구 남부순환로 1413",
      "addr": "서울 관악구 신림동 566-2"
    },
    {
      "no": 221,
      "storeName": "럭키슈퍼",
      "lat": 37.4469194,
      "lng": 126.9031021,
      "roadAddr": "서울 금천구 시흥대로 143 ",
      "addr": "서울 금천구 시흥동 985-12"
    },
    {
      "no": 222,
      "storeName": "혜성슈퍼",
      "lat": 37.4694162,
      "lng": 126.9354776,
      "roadAddr": "서울 관악구 호암로24길 42 법포",
      "addr": "서울 관악구 신림동 1535"
    },
    {
      "no": 223,
      "storeName": "유창슈퍼",
      "lat": 37.4684444,
      "lng": 126.8933034,
      "roadAddr": "서울 금천구 범안로17길 41 진도3차아파트",
      "addr": "서울 금천구 독산동 1136"
    },
    {
      "no": 224,
      "storeName": "대화식품",
      "lat": 37.4714235,
      "lng": 126.896917,
      "roadAddr": "서울 금천구 가산로 53 ",
      "addr": "서울 금천구 독산동 296-16"
    },
    {
      "no": 225,
      "storeName": "여명슈퍼마켓",
      "lat": 37.614336,
      "lng": 127.0415104,
      "roadAddr": "서울 성북구 장위로15길 4",
      "addr": "서울 성북구 장위동 230-188번지"
    },
    {
      "no": 226,
      "storeName": "행운마트",
      "lat": 37.605385,
      "lng": 127.0317844,
      "roadAddr": "서울 성북구 종암로 174",
      "addr": "서울 성북구 하월곡동 90-121번지"
    },
    {
      "no": 227,
      "storeName": "행운부동산(IGA)",
      "lat": 37.6167677,
      "lng": 127.0023559,
      "roadAddr": "서울 성북구 보국문로 167",
      "addr": "서울 성북구 정릉동 780번지"
    },
    {
      "no": 228,
      "storeName": "데이앤나잇",
      "lat": 37.6019266,
      "lng": 127.0334985,
      "roadAddr": "서울 성북구 종암로 132 종암우림카이저팰리스",
      "addr": "서울 성북구 종암동 132"
    },
    {
      "no": 229,
      "storeName": "일공일사(1014)",
      "lat": 37.5907043,
      "lng": 127.0036363,
      "roadAddr": "서울 성북구 성북로 31 ",
      "addr": "서울 성북구 성북동1가 116"
    },
    {
      "no": 230,
      "storeName": "한양슈퍼복권",
      "lat": 37.5823578,
      "lng": 127.0204939,
      "roadAddr": "서울 성북구 지봉로24길 65",
      "addr": "서울 성북구 보문동5가 148번지"
    },
    {
      "no": 231,
      "storeName": "보원상회",
      "lat": 37.5804606,
      "lng": 127.0222869,
      "roadAddr": "서울 성북구 보문로 56",
      "addr": "서울 성북구 보문동7가 22-14번지"
    },
    {
      "no": 232,
      "storeName": "크로바",
      "lat": 37.5704056,
      "lng": 127.0140021,
      "roadAddr": "서울 종로구 종로54길 42 ",
      "addr": "서울 종로구 창신동 411-16"
    },
    {
      "no": 233,
      "storeName": "보성상회",
      "lat": 37.5373294,
      "lng": 127.0811995,
      "roadAddr": "서울 광진구 아차산로 343",
      "addr": "서울 광진구 자양1동 774-14번지"
    },
    {
      "no": 234,
      "storeName": "세븐일레븐 강변테크노마트점",
      "lat": 37.5357263,
      "lng": 127.0957093,
      "roadAddr": "서울 광진구 광나루로56길 85",
      "addr": "서울 광진구 구의동 546-4번지"
    },
    {
      "no": 235,
      "storeName": "현대식품",
      "lat": 37.5379417,
      "lng": 127.0884916,
      "roadAddr": "서울 광진구 아차산로 413",
      "addr": "서울 광진구 구의1동 243-22번지"
    },
    {
      "no": 236,
      "storeName": "성우미니마트",
      "lat": 37.5039767,
      "lng": 127.1137483,
      "roadAddr": "서울 송파구 가락로 167 ",
      "addr": "서울 송파구 송파동 122-9"
    },
    {
      "no": 237,
      "storeName": "럭키슈퍼",
      "lat": 37.5053686,
      "lng": 127.1098601,
      "roadAddr": "서울 송파구 송파대로42길 20",
      "addr": "서울 송파구 송파1동 87-20번지"
    },
    {
      "no": 238,
      "storeName": "제일유통",
      "lat": 37.495506,
      "lng": 127.1186805,
      "roadAddr": "서울 송파구 중대로9길 27",
      "addr": "서울 송파구 가락동 97번지"
    },
    {
      "no": 239,
      "storeName": "명진슈퍼",
      "lat": 37.4835485,
      "lng": 127.1296426,
      "roadAddr": "서울 송파구 새말로 142",
      "addr": "서울 송파구 문정동 97-4번지"
    },
    {
      "no": 240,
      "storeName": "해피데이마트",
      "lat": 37.4890591,
      "lng": 127.1247051,
      "roadAddr": "서울 송파구 동남로6길 14",
      "addr": "서울 송파구 문정동 30-17번지"
    },
    {
      "no": 241,
      "storeName": "우일",
      "lat": 37.4999584,
      "lng": 127.1439956,
      "roadAddr": "서울 송파구 마천로 235",
      "addr": "서울 송파구 마천2동 25-2번지"
    },
    {
      "no": 242,
      "storeName": "혜성슈퍼",
      "lat": 37.4934615,
      "lng": 127.126068,
      "roadAddr": "서울 송파구 송이로27길 9",
      "addr": "서울 송파구 가락2동 132-7번지"
    },
    {
      "no": 243,
      "storeName": "복권파티",
      "lat": 37.4928173,
      "lng": 127.1461745,
      "roadAddr": "서울 송파구 오금로 516",
      "addr": "서울 송파구 거여동 31-10번지"
    },
    {
      "no": 244,
      "storeName": "동원식품",
      "lat": 37.4971975,
      "lng": 127.1287934,
      "roadAddr": "서울 송파구 오금로40길 40",
      "addr": "서울 송파구 가락동 154-18번지"
    },
    {
      "no": 245,
      "storeName": "피터팬",
      "lat": 37.6017999,
      "lng": 126.9290016,
      "roadAddr": "서울 은평구 은평로 193",
      "addr": "서울 은평구 녹번동 206번지"
    },
    {
      "no": 246,
      "storeName": "쎄븐타임",
      "lat": 37.5407589,
      "lng": 126.9585028,
      "roadAddr": "서울 용산구 백범로47길 6",
      "addr": "서울 용산구 효창동 5-220"
    },
    {
      "no": 247,
      "storeName": "아이비즈마트",
      "lat": 37.5523123,
      "lng": 126.9637114,
      "roadAddr": "서울 용산구 만리재로 148",
      "addr": "서울 용산구 서계동 264-3번지"
    },
    {
      "no": 248,
      "storeName": "해태24시",
      "lat": 37.5299112,
      "lng": 126.8339368,
      "roadAddr": "서울 양천구 곰달래로 11",
      "addr": "서울 양천구 신월동 126-35"
    },
    {
      "no": 249,
      "storeName": "로또행운마트",
      "lat": 37.5377467,
      "lng": 126.8274885,
      "roadAddr": "서울 양천구 남부순환로 327",
      "addr": "서울 양천구 신월5동 52-11번지"
    },
    {
      "no": 250,
      "storeName": "우성빨래방",
      "lat": 37.5734613,
      "lng": 127.0715291,
      "roadAddr": "서울 동대문구 장한로 147",
      "addr": "서울 동대문구 장안2동 306-3번지"
    },
    {
      "no": 251,
      "storeName": "CU경기대사거리점",
      "lat": 37.5643009,
      "lng": 126.9638375,
      "roadAddr": "서울 서대문구 경기대로 62 ",
      "addr": "서울 서대문구 충정로2가 184-7"
    },
    {
      "no": 252,
      "storeName": "스파",
      "lat": 37.6616424,
      "lng": 127.0580017,
      "roadAddr": "서울 노원구 동일로 1493 상계주공아파트(10단지)",
      "addr": "서울 노원구 상계동 666-3"
    },
    {
      "no": 253,
      "storeName": "오렌지스토아",
      "lat": 37.5630362,
      "lng": 127.0795482,
      "roadAddr": "서울 광진구 면목로 105",
      "addr": "서울 광진구 중곡동 245-1번지"
    },
    {
      "no": 254,
      "storeName": "MS마트",
      "lat": 37.5445382,
      "lng": 127.0901734,
      "roadAddr": "서울 광진구 광나루로 546 두성빌딩",
      "addr": "서울 광진구 구의동 229-7"
    },
    {
      "no": 255,
      "storeName": "가로매점",
      "lat": 37.6137225,
      "lng": 127.0305267,
      "roadAddr": "서울 강북구 도봉로 52",
      "addr": "서울 강북구 미아동 1364"
    },
    {
      "no": 256,
      "storeName": "토큰판매점",
      "lat": 37.6131312,
      "lng": 127.029462,
      "roadAddr": "서울 강북구 도봉로 45",
      "addr": "서울 강북구 송천동 60-5번지"
    },
    {
      "no": 257,
      "storeName": "토큰박스",
      "lat": 37.6375526,
      "lng": 127.0255515,
      "roadAddr": "서울 강북구 도봉로 334",
      "addr": "서울 강북구 번1동 446-50번지"
    },
    {
      "no": 258,
      "storeName": "1등복권방",
      "lat": 37.6258455,
      "lng": 127.0185034,
      "roadAddr": "서울 강북구 삼양로 252",
      "addr": "서울 강북구 삼양동 777-3번지"
    },
    {
      "no": 259,
      "storeName": "센타포인트명동앞복지가판점",
      "lat": 37.564678,
      "lng": 126.982883,
      "roadAddr": "서울 중구 남대문로 84",
      "addr": "서울 중구 남대문로2가 9-1"
    },
    {
      "no": 260,
      "storeName": "종합가판제141호",
      "lat": 37.5658796,
      "lng": 127.0219296,
      "roadAddr": "서울 중구 퇴계로 447",
      "addr": "서울 중구 황학동 686번지"
    },
    {
      "no": 261,
      "storeName": "가로판매점117호",
      "lat": 37.5676266,
      "lng": 127.0085048,
      "roadAddr": "서울 중구 장충단로 257",
      "addr": "서울 중구 을지로6가 18-88번지"
    },
    {
      "no": 262,
      "storeName": "종합가로판매점113호패션TV앞",
      "lat": 37.5657367,
      "lng": 127.0070531,
      "roadAddr": "서울 중구 을지로 264 롯데 FiTin",
      "addr": "서울 중구 을지로6가 21-31"
    },
    {
      "no": 263,
      "storeName": "상호없음",
      "lat": 37.5536991,
      "lng": 127.0098789,
      "roadAddr": "서울 중구 다산로 109-1",
      "addr": "서울 중구 신당동 369-2"
    },
    {
      "no": 264,
      "storeName": "가판점",
      "lat": 37.5668817,
      "lng": 126.9995692,
      "roadAddr": "서울 중구 을지로 193-1 ",
      "addr": "서울 중구 을지로4가 140-1"
    },
    {
      "no": 265,
      "storeName": "종로3가1호선역2번출구가로판매점82호",
      "lat": 37.5707001,
      "lng": 126.9919207,
      "roadAddr": "서울 종로구 돈화문로 23 ",
      "addr": "서울 종로구 종로3가 23-1"
    },
    {
      "no": 266,
      "storeName": "가로판매대",
      "lat": 37.5681902,
      "lng": 126.964701,
      "roadAddr": "서울 종로구 통일로 156-1 ",
      "addr": "서울 종로구 교남동 46"
    },
    {
      "no": 267,
      "storeName": "가야복권방",
      "lat": 37.5744586,
      "lng": 126.9589731,
      "roadAddr": "서울 종로구 통일로 246-10 무악현대아파트",
      "addr": "서울 종로구 무악동 82"
    },
    {
      "no": 268,
      "storeName": "동대문1번출구앞가로가판점(65호)",
      "lat": 37.5720149,
      "lng": 127.0111748,
      "roadAddr": "서울 종로구 종로 301",
      "addr": "서울 종로구 창신동 551"
    },
    {
      "no": 269,
      "storeName": "상호없음",
      "lat": 37.5704842,
      "lng": 126.9762033,
      "roadAddr": "서울 종로구 새문안로 103-1",
      "addr": "서울 종로구 신문로1가 10-1번지"
    },
    {
      "no": 270,
      "storeName": "SK텔레콤종로지점앞가판대",
      "lat": 37.5693954,
      "lng": 126.9832355,
      "roadAddr": "서울 종로구 우정국로 6 SK텔레콤",
      "addr": "서울 종로구 관철동 290"
    },
    {
      "no": 271,
      "storeName": "신사우리가판",
      "lat": 37.5171485,
      "lng": 127.0197123,
      "roadAddr": "서울 강남구 강남대로 620",
      "addr": "서울 강남구 신사동 502-11"
    },
    {
      "no": 272,
      "storeName": "버스표판매소",
      "lat": 37.5252805,
      "lng": 127.0244003,
      "roadAddr": "서울 강남구 압구정로  151-2",
      "addr": "서울 강남구 압구정동 394"
    },
    {
      "no": 273,
      "storeName": "선릉가판점",
      "lat": 37.5058735,
      "lng": 127.0480302,
      "roadAddr": "서울 강남구 선릉로 519 삼능빌딩",
      "addr": "서울 강남구 역삼동 696-40"
    },
    {
      "no": 274,
      "storeName": "버스표판매소",
      "lat": 37.5233451,
      "lng": 127.0279801,
      "roadAddr": "서울 강남구 논현로 837 원방빌딩",
      "addr": "서울 강남구 신사동 584-3"
    },
    {
      "no": 275,
      "storeName": "가로판매대(구)-3",
      "lat": 37.5301797,
      "lng": 127.0290409,
      "roadAddr": "서울 강남구 압구정로 201 현대아파트",
      "addr": "서울 강남구 압구정동 458"
    },
    {
      "no": 276,
      "storeName": "행복편의점",
      "lat": 37.4916078,
      "lng": 126.8922703,
      "roadAddr": "서울 구로구 구로중앙로 14",
      "addr": "서울 구로구 구로동 142-65번지"
    },
    {
      "no": 277,
      "storeName": "버스토큰판매소",
      "lat": 37.4844586,
      "lng": 126.902256,
      "roadAddr": "서울 구로구 시흥대로 577",
      "addr": "서울 구로구 구로동 1123-1"
    },
    {
      "no": 278,
      "storeName": "교통카드판매대",
      "lat": 37.5100374,
      "lng": 126.8883336,
      "roadAddr": "서울 구로구 경인로 661",
      "addr": "서울 구로구 신도림동 337번지"
    },
    {
      "no": 279,
      "storeName": "가판점",
      "lat": 37.4889803,
      "lng": 126.823562,
      "roadAddr": "서울 구로구 경인로3길 지하 64",
      "addr": "서울 구로구 온수동 119번지"
    },
    {
      "no": 280,
      "storeName": "종합가판점",
      "lat": 37.495472,
      "lng": 126.887536,
      "roadAddr": "서울 구로구 가마산로 245",
      "addr": "서울 구로구 구로동 435번지"
    },
    {
      "no": 281,
      "storeName": "서울구가-17가판",
      "lat": 37.4903284,
      "lng": 126.8844061,
      "roadAddr": "서울 구로구 구로동로 130-2",
      "addr": "서울 구로구 구로4동 731-4번지"
    },
    {
      "no": 282,
      "storeName": "버스토큰판매소",
      "lat": 37.4976589,
      "lng": 126.8561743,
      "roadAddr": "서울 구로구 경인로 323",
      "addr": "서울 구로구 개봉1동 157-13번지"
    },
    {
      "no": 283,
      "storeName": "명당복권",
      "lat": 37.5779916,
      "lng": 127.0357713,
      "roadAddr": "서울 동대문구 왕산로 112-1",
      "addr": "서울 동대문구 용두동 711-4번지"
    },
    {
      "no": 284,
      "storeName": "종합가판점",
      "lat": 37.5796968,
      "lng": 127.0449714,
      "roadAddr": "서울 동대문구 왕산로40길 6",
      "addr": "서울 동대문구 전농동 620-26"
    },
    {
      "no": 285,
      "storeName": "상호없음",
      "lat": 37.5641466,
      "lng": 126.977257,
      "roadAddr": "서울 중구 세종대로 90-1",
      "addr": "서울 중구 태평로2가 113-1"
    },
    {
      "no": 286,
      "storeName": "가로판매점",
      "lat": 37.5630616,
      "lng": 126.9732836,
      "roadAddr": "서울 중구 서소문로 109",
      "addr": "서울 중구 서소문동 53-6번지"
    },
    {
      "no": 287,
      "storeName": "가판100호",
      "lat": 37.5664597,
      "lng": 126.9907708,
      "roadAddr": "서울 중구 을지로 115-1",
      "addr": "서울 중구 을지로3가 5-4번지"
    },
    {
      "no": 288,
      "storeName": "남대문회현역가판15호",
      "lat": 37.5582888,
      "lng": 126.9775829,
      "roadAddr": "서울 중구 퇴계로 45",
      "addr": "서울 중구 남창동 47-12"
    },
    {
      "no": 289,
      "storeName": "신가로판매점",
      "lat": 37.5647017,
      "lng": 126.9766451,
      "roadAddr": "서울 중구 세종대로 93",
      "addr": "서울 중구 태평로2가 360-1번지"
    },
    {
      "no": 290,
      "storeName": "가로판매대제152호(신)",
      "lat": 37.5673056,
      "lng": 126.9830339,
      "roadAddr": "서울 중구 남대문로 114",
      "addr": "서울 중구 남대문로1가 22-6번지"
    },
    {
      "no": 291,
      "storeName": "하나은행별관앞가판43호",
      "lat": 37.566412,
      "lng": 126.9840415,
      "roadAddr": "서울 중구 을지로 55",
      "addr": "서울 중구 을지로2가 9-10번지"
    },
    {
      "no": 292,
      "storeName": "가로가판대제57호(구)",
      "lat": 37.5629202,
      "lng": 126.9770808,
      "roadAddr": "서울 중구 세종대로14길 6-2",
      "addr": "서울 중구 태평로2가 69-1번지"
    },
    {
      "no": 293,
      "storeName": "종합가로가판점",
      "lat": 37.5643587,
      "lng": 127.0063237,
      "roadAddr": "서울 중구 마른내로 166",
      "addr": "서울 중구 광희동1가 202-1번지"
    },
    {
      "no": 294,
      "storeName": "중구가판12호",
      "lat": 37.5555057,
      "lng": 126.9737678,
      "roadAddr": "서울 중구 한강대로 416",
      "addr": "서울 중구 남대문로5가 541번지"
    },
    {
      "no": 295,
      "storeName": "가로판매대제18호",
      "lat": 37.5594054,
      "lng": 126.9817843,
      "roadAddr": "서울 중구 소공로 51 우리은행본점",
      "addr": "서울 중구 회현동1가 203"
    },
    {
      "no": 296,
      "storeName": "중구-가로가판대-37",
      "lat": 37.5608352,
      "lng": 126.9780735,
      "roadAddr": "서울 중구 남대문로 20-2",
      "addr": "서울 중구 남대문로3가 30-6번지"
    },
    {
      "no": 297,
      "storeName": "가로판매대제13호",
      "lat": 37.5573093,
      "lng": 126.9770507,
      "roadAddr": "서울 중구 퇴계로 36",
      "addr": "서울 중구 남창동 169-2번지"
    },
    {
      "no": 298,
      "storeName": "가판14호",
      "lat": 37.5580967,
      "lng": 126.9763531,
      "roadAddr": "서울 중구 퇴계로 37",
      "addr": "서울 중구 남창동 61-4번지"
    },
    {
      "no": 299,
      "storeName": "신문가판대",
      "lat": 37.5577488,
      "lng": 126.9726749,
      "roadAddr": "서울 중구 세종대로 5-1 ",
      "addr": "서울 중구 남대문로5가 63-13"
    },
    {
      "no": 300,
      "storeName": "신간판",
      "lat": 37.5681015,
      "lng": 126.9794947,
      "roadAddr": "서울 중구 무교로 24",
      "addr": "서울 중구 무교동 12-1번지"
    },
    {
      "no": 301,
      "storeName": "가판점",
      "lat": 37.5612886,
      "lng": 126.9853496,
      "roadAddr": "서울 중구 퇴계로 123",
      "addr": "서울 중구 충무로2가 65-7번지"
    },
    {
      "no": 302,
      "storeName": "가로대가판점",
      "lat": 37.6114224,
      "lng": 126.9286013,
      "roadAddr": "서울 은평구 통일로 741",
      "addr": "서울 은평구 대조동 6-5번지"
    },
    {
      "no": 303,
      "storeName": "황금대박점",
      "lat": 37.6359888,
      "lng": 127.0710297,
      "roadAddr": "서울 노원구 공릉로 328",
      "addr": "서울 노원구 하계동 180-11번지"
    },
    {
      "no": 304,
      "storeName": "가판점",
      "lat": 37.639148,
      "lng": 127.0666156,
      "roadAddr": "서울 노원구 동일로  1231-2",
      "addr": "서울 노원구 중계동 503-3"
    },
    {
      "no": 305,
      "storeName": "신문판매대",
      "lat": 37.6185444,
      "lng": 127.0777902,
      "roadAddr": "서울 노원구 화랑로 455-2",
      "addr": "서울 노원구 공릉동 629-2"
    },
    {
      "no": 306,
      "storeName": "가판대",
      "lat": 37.6862598,
      "lng": 127.0480152,
      "roadAddr": "서울 도봉구 마들로 859-19",
      "addr": "서울 도봉구 도봉동 30-1"
    },
    {
      "no": 307,
      "storeName": "운수대통가판점",
      "lat": 37.5623974,
      "lng": 127.0332569,
      "roadAddr": "서울 성동구 왕십리로 327 ",
      "addr": "서울 성동구 하왕십리동 966-14"
    },
    {
      "no": 308,
      "storeName": "KB행당동지점옆가판",
      "lat": 37.5578006,
      "lng": 127.03427,
      "roadAddr": "서울 성동구 고산자로 198",
      "addr": "서울 성동구 행당1동 320-22번지"
    },
    {
      "no": 309,
      "storeName": "가로판매1-4-28",
      "lat": 37.5705433,
      "lng": 127.0380731,
      "roadAddr": "서울 성동구 고산자로 348",
      "addr": "서울 성동구 마장동 522-6"
    },
    {
      "no": 310,
      "storeName": "만복당",
      "lat": 37.5548181,
      "lng": 127.02036,
      "roadAddr": "서울 성동구 행당로 1 ",
      "addr": "서울 성동구 금호동1가 125-1"
    },
    {
      "no": 311,
      "storeName": "토마토",
      "lat": 37.5607293,
      "lng": 127.0394714,
      "roadAddr": "서울 성동구 마조로7길 15-1",
      "addr": "서울 성동구 행당동 3-3번지"
    },
    {
      "no": 312,
      "storeName": "우리은행금호동지점앞가판",
      "lat": 37.5481827,
      "lng": 127.0210193,
      "roadAddr": "서울 성동구 장터길 46",
      "addr": "서울 성동구 금호동4가 1109번지"
    },
    {
      "no": 313,
      "storeName": "로또킹",
      "lat": 37.516742,
      "lng": 126.9067499,
      "roadAddr": "서울 영등포구 영중로 2",
      "addr": "서울 영등포구 영등포동3가 10-13"
    },
    {
      "no": 314,
      "storeName": "가판점(신문)",
      "lat": 37.5344783,
      "lng": 126.9010078,
      "roadAddr": "서울 영등포구 양평로 50-2",
      "addr": "서울 영등포구 당산동6가 337-17"
    },
    {
      "no": 315,
      "storeName": "당산로또명당점",
      "lat": 37.5346563,
      "lng": 126.900882,
      "roadAddr": "서울 영등포구 양평로 52",
      "addr": "서울 영등포구 당산동6가 337-19번지"
    },
    {
      "no": 316,
      "storeName": "교통카드판매대",
      "lat": 37.5237795,
      "lng": 126.9268892,
      "roadAddr": "서울 영등포구 여의나루로 71 동화빌딩",
      "addr": "서울 영등포구 여의도동 25-3"
    },
    {
      "no": 317,
      "storeName": "버스충전소",
      "lat": 37.487741,
      "lng": 126.98262,
      "roadAddr": "서울 서초구 동작대로 126",
      "addr": "서울 서초구 방배동 1763번지"
    },
    {
      "no": 318,
      "storeName": "가판점",
      "lat": 37.4850618,
      "lng": 127.0150234,
      "roadAddr": "서울 서초구 효령로 283 ",
      "addr": "서울 서초구 서초동 1602-2"
    },
    {
      "no": 319,
      "storeName": "버스충전소",
      "lat": 37.5060987,
      "lng": 127.0034174,
      "roadAddr": "서울 서초구 신반포로 177 반포쇼핑타운",
      "addr": "서울 서초구 잠원동 75-19"
    },
    {
      "no": 320,
      "storeName": "가로판매점",
      "lat": 37.5065445,
      "lng": 127.0048933,
      "roadAddr": "서울 서초구 신반포로 189",
      "addr": "서울 서초구 잠원동 69-3번지"
    },
    {
      "no": 321,
      "storeName": "오케이상사",
      "lat": 37.5038241,
      "lng": 127.0045339,
      "roadAddr": "서울 서초구 신반포로 176",
      "addr": "서울 서초구 반포동 19-3번지"
    },
    {
      "no": 322,
      "storeName": "버스카드충전소",
      "lat": 37.5070249,
      "lng": 127.0064782,
      "roadAddr": "서울 서초구 신반포로 205 반포쇼핑타운",
      "addr": "서울 서초구 잠원동 69-12"
    },
    {
      "no": 323,
      "storeName": "경영상회",
      "lat": 37.4932705,
      "lng": 127.0293874,
      "roadAddr": "서울 서초구 강남대로 341",
      "addr": "서울 서초구 서초동 1329-8번지"
    },
    {
      "no": 324,
      "storeName": "드림로또",
      "lat": 37.50568,
      "lng": 127.0058468,
      "roadAddr": "서울 서초구 신반포로 194 강남고속버스터미널",
      "addr": "서울 서초구 반포동 19-4"
    },
    {
      "no": 325,
      "storeName": "로또와 토토",
      "lat": 37.4831047,
      "lng": 126.9953391,
      "roadAddr": "서울 서초구 방배로13길 18 방배아크로타워",
      "addr": "서울 서초구 방배동 923-6"
    },
    {
      "no": 326,
      "storeName": "복권판매소",
      "lat": 37.4918747,
      "lng": 127.0137428,
      "roadAddr": "서울 서초구 서초중앙로 113 영한빌딩",
      "addr": "서울 서초구 서초동 1575-3"
    },
    {
      "no": 327,
      "storeName": "행운복권마트",
      "lat": 37.4872041,
      "lng": 126.9928685,
      "roadAddr": "서울 서초구 서초대로 96 ",
      "addr": "서울 서초구 방배동 937-22"
    },
    {
      "no": 328,
      "storeName": "승지GALLANT",
      "lat": 37.50568,
      "lng": 127.0058468,
      "roadAddr": "서울 서초구 신반포로 194 강남고속버스터미널",
      "addr": "서울 서초구 반포동 19-4"
    },
    {
      "no": 329,
      "storeName": "경부선 하차장로또방",
      "lat": 37.50568,
      "lng": 127.0058468,
      "roadAddr": "서울 서초구 신반포로 194 강남고속버스터미널",
      "addr": "서울 서초구 반포동 19-4"
    },
    {
      "no": 330,
      "storeName": "우리샵",
      "lat": 37.4980499,
      "lng": 127.0264971,
      "roadAddr": "서울 서초구 서초대로77길 3",
      "addr": "서울 서초구 서초동 1317-20번지"
    },
    {
      "no": 331,
      "storeName": "교통카드",
      "lat": 37.5081106,
      "lng": 127.0222943,
      "roadAddr": "서울 서초구 강남대로 517 형제빌딩",
      "addr": "서울 서초구 반포동 723-13"
    },
    {
      "no": 332,
      "storeName": "이마트24 서울고속터미널4호점",
      "lat": 37.50568,
      "lng": 127.0058468,
      "roadAddr": "서울 서초구 신반포로 194 강남고속버스터미널",
      "addr": "서울 서초구 반포동 19-4"
    },
    {
      "no": 333,
      "storeName": "연초2호 쇼케이스7호",
      "lat": 37.50568,
      "lng": 127.0058468,
      "roadAddr": "서울 서초구 신반포로 194 강남고속버스터미널",
      "addr": "서울 서초구 반포동 19-4"
    },
    {
      "no": 334,
      "storeName": "종합가판점",
      "lat": 37.5942306,
      "lng": 126.9178721,
      "roadAddr": "서울 은평구 응암로 247",
      "addr": "서울 은평구 응암3동 124-17번지"
    },
    {
      "no": 335,
      "storeName": "종합가판점",
      "lat": 37.6119547,
      "lng": 126.9281847,
      "roadAddr": "서울 은평구 통일로 749",
      "addr": "서울 은평구 대조동 4-1번지"
    },
    {
      "no": 336,
      "storeName": "가판",
      "lat": 37.6123464,
      "lng": 126.9286789,
      "roadAddr": "서울 은평구 통일로 750",
      "addr": "서울 은평구 불광1동 267-1번지"
    },
    {
      "no": 337,
      "storeName": "가판점",
      "lat": 37.6729455,
      "lng": 127.0438771,
      "roadAddr": "서울 도봉구 도봉로 767",
      "addr": "서울 도봉구 도봉동 616-19번지"
    },
    {
      "no": 338,
      "storeName": "남영동로또",
      "lat": 37.5430197,
      "lng": 126.9722258,
      "roadAddr": "서울 용산구 한강대로 277-1",
      "addr": "서울 용산구 갈월동 90-16번지"
    },
    {
      "no": 339,
      "storeName": "행운가판점",
      "lat": 37.527503,
      "lng": 126.9665133,
      "roadAddr": "서울 용산구 한강대로 80 ",
      "addr": "서울 용산구 한강로2가 222-5"
    },
    {
      "no": 340,
      "storeName": "가로판매점",
      "lat": 37.5298406,
      "lng": 126.9689037,
      "roadAddr": "서울 용산구 한강대로 114",
      "addr": "서울 용산구 한강로2가 424-2"
    },
    {
      "no": 341,
      "storeName": "가로판매점",
      "lat": 37.5361845,
      "lng": 126.9624979,
      "roadAddr": "서울 용산구 원효로 179",
      "addr": "서울 용산구 원효로2가 72번지"
    },
    {
      "no": 342,
      "storeName": "신문가판점",
      "lat": 37.5417529,
      "lng": 126.9716188,
      "roadAddr": "서울 용산구 한강대로77길 19",
      "addr": "서울 용산구 갈월동 99-4"
    },
    {
      "no": 343,
      "storeName": "이촌가판점",
      "lat": 37.5204952,
      "lng": 126.9729876,
      "roadAddr": "서울 용산구 이촌로71길 10",
      "addr": "서울 용산구 이촌동 409번지"
    },
    {
      "no": 344,
      "storeName": "가로판매점",
      "lat": 37.5350216,
      "lng": 126.9614889,
      "roadAddr": "서울 용산구 원효로 166",
      "addr": "서울 용산구 원효로2가 94-2번지"
    },
    {
      "no": 345,
      "storeName": "복권세상",
      "lat": 37.519702,
      "lng": 126.8436738,
      "roadAddr": "서울 양천구 신월로 187",
      "addr": "서울 양천구 신월동 535-4번지"
    },
    {
      "no": 346,
      "storeName": "까치복권",
      "lat": 37.5399573,
      "lng": 126.833356,
      "roadAddr": "서울 양천구 화곡로 103 ",
      "addr": "서울 양천구 신월동 23-17"
    },
    {
      "no": 347,
      "storeName": "토큰박스",
      "lat": 37.5953819,
      "lng": 127.0592314,
      "roadAddr": "서울 동대문구 이문로 93 민족통일MJ캠퍼스외대",
      "addr": "서울 동대문구 이문동 329-1"
    },
    {
      "no": 348,
      "storeName": "로또판매점",
      "lat": 37.5806153,
      "lng": 127.0440026,
      "roadAddr": "서울 동대문구 왕산로37길 11",
      "addr": "서울 동대문구 청량리동 773"
    },
    {
      "no": 349,
      "storeName": "버스카드충전소",
      "lat": 37.5101582,
      "lng": 127.0660681,
      "roadAddr": "서울 강남구 테헤란로 625 덕명빌딩",
      "addr": "서울 강남구 삼성동 170-9"
    },
    {
      "no": 350,
      "storeName": "교통카드충전소",
      "lat": 37.4971888,
      "lng": 127.0521782,
      "roadAddr": "서울 강남구 선릉로 309",
      "addr": "서울 강남구 역삼동 765-9번지"
    },
    {
      "no": 351,
      "storeName": "서교동가판점",
      "lat": 37.5541137,
      "lng": 126.9194693,
      "roadAddr": "서울 마포구 양화로 115",
      "addr": "서울 마포구 서교동 374-18번지"
    },
    {
      "no": 352,
      "storeName": "가로매점",
      "lat": 37.541357,
      "lng": 126.9480097,
      "roadAddr": "서울 마포구 마포대로 61-1",
      "addr": "서울 마포구 도화동 559"
    },
    {
      "no": 353,
      "storeName": "로또복권판매소",
      "lat": 37.5399727,
      "lng": 126.9470994,
      "roadAddr": "서울 마포구 마포대로 44",
      "addr": "서울 마포구 도화동 37번지"
    },
    {
      "no": 354,
      "storeName": "아현역3번출구앞가판점",
      "lat": 37.5570443,
      "lng": 126.9579612,
      "roadAddr": "서울 마포구 마포대로 249 아현산업정보학교",
      "addr": "서울 마포구 아현동 267-1"
    },
    {
      "no": 355,
      "storeName": "가로판매점",
      "lat": 37.5586821,
      "lng": 126.9277299,
      "roadAddr": "서울 서대문구 신촌로 5 ",
      "addr": "서울 서대문구 창천동 510-5"
    },
    {
      "no": 356,
      "storeName": "우미6호가판점",
      "lat": 37.5627447,
      "lng": 126.9641207,
      "roadAddr": "서울 서대문구 충정로5길 2 ",
      "addr": "서울 서대문구 충정로3가 190-21"
    },
    {
      "no": 357,
      "storeName": "가로판매점",
      "lat": 37.5695019,
      "lng": 126.9151317,
      "roadAddr": "서울 서대문구 수색로 32 ",
      "addr": "서울 서대문구 남가좌동 293-85"
    },
    {
      "no": 358,
      "storeName": "가판점",
      "lat": 37.5569454,
      "lng": 126.9432628,
      "roadAddr": "서울 서대문구 신촌로 155",
      "addr": "서울 서대문구 대현동 101-25번지"
    },
    {
      "no": 359,
      "storeName": "대박종합복권가로판매점",
      "lat": 37.5560882,
      "lng": 126.934944,
      "roadAddr": "서울 서대문구 신촌로 75",
      "addr": "서울 서대문구 창천동 72-7번지"
    },
    {
      "no": 360,
      "storeName": "가로판매점",
      "lat": 37.5555703,
      "lng": 126.9374787,
      "roadAddr": "서울 서대문구 신촌로 103",
      "addr": "서울 서대문구 창천동 18-42"
    },
    {
      "no": 361,
      "storeName": "가로판매점18호",
      "lat": 37.558073,
      "lng": 126.9431952,
      "roadAddr": "서울 서대문구 신촌역로 16 신촌가이아",
      "addr": "서울 서대문구 대현동 27-20"
    },
    {
      "no": 362,
      "storeName": "토로또가판점",
      "lat": 37.5136744,
      "lng": 126.944582,
      "roadAddr": "서울 동작구 노량진로 168-2",
      "addr": "서울 동작구 노량진동 148-80"
    },
    {
      "no": 363,
      "storeName": "토큰박스",
      "lat": 37.5078976,
      "lng": 126.9614485,
      "roadAddr": "서울 동작구 흑석로 106-5 ",
      "addr": "서울 동작구 흑석동 102-25"
    },
    {
      "no": 364,
      "storeName": "Q마트",
      "lat": 37.5105288,
      "lng": 126.9403673,
      "roadAddr": "서울 동작구 장승배기로 146 노량진1동우편취급소",
      "addr": "서울 동작구 노량진동 236-13"
    },
    {
      "no": 365,
      "storeName": "가판점",
      "lat": 37.5047392,
      "lng": 126.9457522,
      "roadAddr": "서울 동작구 상도로 246 일강빌딩",
      "addr": "서울 동작구 상도동 32-10"
    },
    {
      "no": 366,
      "storeName": "가판점",
      "lat": 37.5366086,
      "lng": 127.1312324,
      "roadAddr": "서울 강동구 천호대로 1073 힐탑프라자",
      "addr": "서울 강동구 천호동 449-49"
    },
    {
      "no": 367,
      "storeName": "토큰판매소",
      "lat": 37.5512462,
      "lng": 127.1437839,
      "roadAddr": "서울 강동구 양재대로 1631",
      "addr": "서울 강동구 명일동 312-86번지"
    },
    {
      "no": 368,
      "storeName": "가판점",
      "lat": 37.5283114,
      "lng": 127.1367148,
      "roadAddr": "서울 강동구 양재대로 1370-1",
      "addr": "서울 강동구 둔촌동 520-1"
    },
    {
      "no": 369,
      "storeName": "버스표 담배",
      "lat": 37.5534845,
      "lng": 127.1283921,
      "roadAddr": "서울 강동구 올림픽로 811",
      "addr": "서울 강동구 암사동 504-22번지"
    },
    {
      "no": 370,
      "storeName": "행운마트",
      "lat": 37.5428664,
      "lng": 127.135097,
      "roadAddr": "서울 강동구 구천면로34길 71",
      "addr": "서울 강동구 천호동 100-3번지"
    },
    {
      "no": 371,
      "storeName": "대박가판장",
      "lat": 37.5509248,
      "lng": 127.1437513,
      "roadAddr": "서울 강동구 양재대로 1627",
      "addr": "서울 강동구 명일동 312-92"
    },
    {
      "no": 372,
      "storeName": "가로판매점",
      "lat": 37.5349374,
      "lng": 127.1385467,
      "roadAddr": "서울 강동구 양재대로 1443",
      "addr": "서울 강동구 길동 458-5번지"
    },
    {
      "no": 373,
      "storeName": "고덕로또복권",
      "lat": 37.5582662,
      "lng": 127.1701144,
      "roadAddr": "서울 강동구 상일로15길 18",
      "addr": "서울 강동구 고덕동 193-5"
    },
    {
      "no": 374,
      "storeName": "돼지복권",
      "lat": 37.5477077,
      "lng": 127.1269954,
      "roadAddr": "서울 강동구 올림픽로 746",
      "addr": "서울 강동구 천호동 315"
    },
    {
      "no": 375,
      "storeName": "가로판매대",
      "lat": 37.5392913,
      "lng": 127.1238673,
      "roadAddr": "서울 강동구 올림픽로 648",
      "addr": "서울 강동구 천호동 455-21"
    },
    {
      "no": 376,
      "storeName": "베네시티앞가판",
      "lat": 37.5406109,
      "lng": 127.1249414,
      "roadAddr": "서울 강동구 올림픽로 664",
      "addr": "서울 강동구 천호2동 425-5번지"
    },
    {
      "no": 377,
      "storeName": "버스카드충전소",
      "lat": 37.4814223,
      "lng": 126.9484496,
      "roadAddr": "서울 관악구 남부순환로 1784 ",
      "addr": "서울 관악구 봉천동 883-15"
    },
    {
      "no": 378,
      "storeName": "가로판매점",
      "lat": 37.4759484,
      "lng": 126.9811803,
      "roadAddr": "서울 관악구 과천대로 955 ",
      "addr": "서울 관악구 남현동 1060-11"
    },
    {
      "no": 379,
      "storeName": "로또 명당 가판점",
      "lat": 37.4798411,
      "lng": 126.9052183,
      "roadAddr": "서울 금천구 남부순환로 1390 전영수내과의원",
      "addr": "서울 금천구 독산동 876-2"
    },
    {
      "no": 380,
      "storeName": "버스카드판매대",
      "lat": 37.471968,
      "lng": 126.9333057,
      "roadAddr": "서울 관악구 신림로 145-2",
      "addr": "서울 관악구 신림동 1513"
    },
    {
      "no": 381,
      "storeName": "사당",
      "lat": 37.4757112,
      "lng": 126.9812959,
      "roadAddr": "서울 관악구 과천대로 953 ",
      "addr": "서울 관악구 남현동 1061-59"
    },
    {
      "no": 382,
      "storeName": "가로가판대",
      "lat": 37.4838971,
      "lng": 126.9028357,
      "roadAddr": "서울 관악구 시흥대로 572 한성빌딩",
      "addr": "서울 관악구 신림동 1643-6"
    },
    {
      "no": 383,
      "storeName": "가로판매점",
      "lat": 37.4763558,
      "lng": 126.8990868,
      "roadAddr": "서울 금천구 시흥대로 480",
      "addr": "서울 금천구 독산3동 967-19번지"
    },
    {
      "no": 384,
      "storeName": "예술인마을버스판매소",
      "lat": 37.4763242,
      "lng": 126.9772094,
      "roadAddr": "서울 관악구 남부순환로 2056 태림빌딩",
      "addr": "서울 관악구 남현동 1057-22"
    },
    {
      "no": 385,
      "storeName": "가로판매점",
      "lat": 37.4531527,
      "lng": 126.900719,
      "roadAddr": "서울 금천구 시흥대로 217 시흥동우체국",
      "addr": "서울 금천구 시흥동 993-2"
    },
    {
      "no": 386,
      "storeName": "88수퍼",
      "lat": 37.4771868,
      "lng": 126.8920672,
      "roadAddr": "서울 금천구 가산로 130 ",
      "addr": "서울 금천구 가산동 145-23"
    },
    {
      "no": 387,
      "storeName": "교통카드충전소",
      "lat": 37.4691913,
      "lng": 126.8984851,
      "roadAddr": "서울 금천구 시흥대로 398 ",
      "addr": "서울 금천구 독산동 1012"
    },
    {
      "no": 388,
      "storeName": "신림마트",
      "lat": 37.4836754,
      "lng": 126.9270853,
      "roadAddr": "서울 관악구 남부순환로 1588 신림빌딩",
      "addr": "서울 관악구 신림동 1639-1"
    },
    {
      "no": 389,
      "storeName": "신문다이길음시장앞",
      "lat": 37.6031657,
      "lng": 127.0224641,
      "roadAddr": "서울 성북구 길음로7길 34 ",
      "addr": "서울 성북구 길음동 540-7"
    },
    {
      "no": 390,
      "storeName": "74호종합가판",
      "lat": 37.568437,
      "lng": 126.989898,
      "roadAddr": "서울 종로구 청계천로 111 ",
      "addr": "서울 종로구 관수동 149-2"
    },
    {
      "no": 391,
      "storeName": "가로매점",
      "lat": 37.5481675,
      "lng": 127.0717524,
      "roadAddr": "서울 광진구 광나루로 375-1",
      "addr": "서울 광진구 군자동 361-28번지"
    },
    {
      "no": 392,
      "storeName": "가판",
      "lat": 37.5585912,
      "lng": 127.0875602,
      "roadAddr": "서울 광진구 용마산로 55",
      "addr": "서울 광진구 중곡동 124-11번지"
    },
    {
      "no": 393,
      "storeName": "백악관앞가판",
      "lat": 37.5532471,
      "lng": 127.0895583,
      "roadAddr": "서울 광진구 천호대로 647",
      "addr": "서울 광진구 중곡동 115-4번지"
    },
    {
      "no": 394,
      "storeName": "군자로또점",
      "lat": 37.5561806,
      "lng": 127.0785138,
      "roadAddr": "서울 광진구 능동로 295",
      "addr": "서울 광진구 군자동 477-18번지"
    },
    {
      "no": 395,
      "storeName": "아차산역가로판매점",
      "lat": 37.5516651,
      "lng": 127.0901892,
      "roadAddr": "서울 광진구 천호대로 665",
      "addr": "서울 광진구 구의2동 53-4번지"
    },
    {
      "no": 396,
      "storeName": "자양사거리가로매점",
      "lat": 37.5362295,
      "lng": 127.0832168,
      "roadAddr": "서울 광진구 자양로 95",
      "addr": "서울 광진구 자양동 219-2"
    },
    {
      "no": 397,
      "storeName": "토큰판매소",
      "lat": 37.536696,
      "lng": 127.1223775,
      "roadAddr": "서울 송파구 바람드리길 62",
      "addr": "서울 송파구 풍납1동 480번지"
    },
    {
      "no": 398,
      "storeName": "잠실매점",
      "lat": 37.5144295,
      "lng": 127.1006486,
      "roadAddr": "서울 송파구 올림픽로 269",
      "addr": "서울 송파구 신천동 7-18번지"
    },
    {
      "no": 399,
      "storeName": "치즈마트",
      "lat": 37.4961026,
      "lng": 127.1110027,
      "roadAddr": "서울 송파구 양재대로 932 가락동농수산물도매시장",
      "addr": "서울 송파구 가락동 600"
    },
    {
      "no": 400,
      "storeName": "잠실나루역2번출구",
      "lat": 37.5225555,
      "lng": 127.1047656,
      "roadAddr": "서울 송파구 올림픽로37길 109",
      "addr": "서울 송파구 신천동 17-2번지"
    },
    {
      "no": 401,
      "storeName": "복권명당",
      "lat": 37.6306992,
      "lng": 127.0179926,
      "roadAddr": "서울 강북구 삼양로 306",
      "addr": "서울 강북구 수유동 57-80번지"
    },
    {
      "no": 402,
      "storeName": "슈퍼전자",
      "lat": 37.6193358,
      "lng": 127.0207598,
      "roadAddr": "서울 강북구 솔샘로 254",
      "addr": "서울 강북구 삼각산동 688-5번지"
    },
    {
      "no": 403,
      "storeName": "태양비디오",
      "lat": 37.554458,
      "lng": 127.0092175,
      "roadAddr": "서울 중구 동호로 193-22 백석빌딩",
      "addr": "서울 중구 신당동 355-8"
    },
    {
      "no": 404,
      "storeName": "샌드빈(SANDBEAN)",
      "lat": 37.5613419,
      "lng": 127.0055986,
      "roadAddr": "서울 중구 퇴계로56길 57",
      "addr": "서울 중구 장충동2가 9-2번지"
    },
    {
      "no": 405,
      "storeName": "꿈이현실로",
      "lat": 37.5685691,
      "lng": 126.9977648,
      "roadAddr": "서울 중구 청계천로 182",
      "addr": "서울 중구 주교동 135-1"
    },
    {
      "no": 406,
      "storeName": "우리마트",
      "lat": 37.5632046,
      "lng": 126.9982013,
      "roadAddr": "서울 중구 창경궁로 11",
      "addr": "서울 중구 충무로4가 62-9번지"
    },
    {
      "no": 407,
      "storeName": "샛별복권방",
      "lat": 37.5544254,
      "lng": 127.0119364,
      "roadAddr": "서울 중구 동호로10길 12 ",
      "addr": "서울 중구 신당동 349-57"
    },
    {
      "no": 408,
      "storeName": "스태프",
      "lat": 37.5767427,
      "lng": 126.9854183,
      "roadAddr": "서울 종로구 율곡로 55",
      "addr": "서울 종로구 안국동 139-1번지"
    },
    {
      "no": 409,
      "storeName": "대박드림",
      "lat": 37.5766236,
      "lng": 127.0218435,
      "roadAddr": "서울 종로구 숭인동길 35 ",
      "addr": "서울 종로구 숭인동 759"
    },
    {
      "no": 410,
      "storeName": "해피데이",
      "lat": 37.5052977,
      "lng": 126.8773596,
      "roadAddr": "서울 구로구 구로중앙로 216-1 ",
      "addr": "서울 구로구 구로동 612-9"
    },
    {
      "no": 411,
      "storeName": "GS25궁동상지점",
      "lat": 37.4941586,
      "lng": 126.8330801,
      "roadAddr": "서울 구로구 부일로15길 29",
      "addr": "서울 구로구 궁동 208-16"
    },
    {
      "no": 412,
      "storeName": "애니콜플라자",
      "lat": 37.4925917,
      "lng": 126.8906346,
      "roadAddr": "서울 구로구 구로중앙로 31",
      "addr": "서울 구로구 구로동 136-40번지"
    },
    {
      "no": 413,
      "storeName": "행운복권방",
      "lat": 37.4865567,
      "lng": 126.8550315,
      "roadAddr": "서울 구로구 개봉로3길 20-1",
      "addr": "서울 구로구 개봉동 358-21"
    },
    {
      "no": 414,
      "storeName": "투데이",
      "lat": 37.5741308,
      "lng": 127.0310496,
      "roadAddr": "서울 동대문구 천호대로 67 ",
      "addr": "서울 동대문구 용두동 118-81"
    },
    {
      "no": 415,
      "storeName": "돈우리",
      "lat": 37.569584,
      "lng": 127.0640022,
      "roadAddr": "서울 동대문구 한천로 89",
      "addr": "서울 동대문구 답십리2동 902번지"
    },
    {
      "no": 416,
      "storeName": "보성정보통신",
      "lat": 37.5619261,
      "lng": 127.0665276,
      "roadAddr": "서울 동대문구 장한로2길 24",
      "addr": "서울 동대문구 장안동 464-6번지"
    },
    {
      "no": 417,
      "storeName": "필동반점",
      "lat": 37.5600098,
      "lng": 126.9965415,
      "roadAddr": "서울 중구 필동로 15-6",
      "addr": "서울 중구 필동2가 74-3번지"
    },
    {
      "no": 418,
      "storeName": "문구뱅크",
      "lat": 37.6070151,
      "lng": 126.9219692,
      "roadAddr": "서울 은평구 서오릉로 71 영화마스타골프랜드",
      "addr": "서울 은평구 역촌동 16-2"
    },
    {
      "no": 419,
      "storeName": "지원물산",
      "lat": 37.619829,
      "lng": 127.0781384,
      "roadAddr": "서울 노원구 공릉로 108",
      "addr": "서울 노원구 공릉동 644-12번지"
    },
    {
      "no": 420,
      "storeName": "미래복권",
      "lat": 37.625191,
      "lng": 127.0725786,
      "roadAddr": "서울 노원구 동일로191길 7",
      "addr": "서울 노원구 공릉동 398-4"
    },
    {
      "no": 421,
      "storeName": "기린통신",
      "lat": 37.6583677,
      "lng": 127.0754138,
      "roadAddr": "서울 노원구 덕릉로 680 보고프라자",
      "addr": "서울 노원구 중계동 157-26"
    },
    {
      "no": 422,
      "storeName": "비디오카페(성수점)",
      "lat": 37.537763,
      "lng": 127.0527792,
      "roadAddr": "서울 성동구 성덕정길 84",
      "addr": "서울 성동구 성수2가1동 506번지"
    },
    {
      "no": 423,
      "storeName": "한양복권",
      "lat": 37.5628305,
      "lng": 127.0539393,
      "roadAddr": "서울 성동구 용답중앙길 78-1",
      "addr": "서울 성동구 용답동 44-4번지"
    },
    {
      "no": 424,
      "storeName": "명당복권",
      "lat": 37.5196268,
      "lng": 126.9076358,
      "roadAddr": "서울 영등포구 영등포로 235",
      "addr": "서울 영등포구 영등포동5가 6-8번지"
    },
    {
      "no": 425,
      "storeName": "몽곡사",
      "lat": 37.5231174,
      "lng": 126.9106197,
      "roadAddr": "서울 영등포구 버드나루로 51",
      "addr": "서울 영등포구 영등포동2가 94-23번지"
    },
    {
      "no": 426,
      "storeName": "신나라",
      "lat": 37.5190822,
      "lng": 126.8894738,
      "roadAddr": "서울 영등포구 선유로 58 ",
      "addr": "서울 영등포구 문래동3가 77-44"
    },
    {
      "no": 427,
      "storeName": "에이원텔레콤",
      "lat": 37.4925977,
      "lng": 126.9902869,
      "roadAddr": "서울 서초구 동광로 70",
      "addr": "서울 서초구 방배동 813-7번지"
    },
    {
      "no": 428,
      "storeName": "레몬비 방배역점",
      "lat": 37.4808914,
      "lng": 126.9975138,
      "roadAddr": "서울 서초구 방배로 73 양지빌딩",
      "addr": "서울 서초구 방배동 981-15"
    },
    {
      "no": 429,
      "storeName": "학창&배팅샵",
      "lat": 37.4876749,
      "lng": 126.9945497,
      "roadAddr": "서울 서초구 서초대로26길 3",
      "addr": "서울 서초구 방배동 897-1번지"
    },
    {
      "no": 430,
      "storeName": "우주문화사",
      "lat": 37.4979663,
      "lng": 126.9862312,
      "roadAddr": "서울 서초구 사평대로2길 10",
      "addr": "서울 서초구 방배동 750-11번지"
    },
    {
      "no": 431,
      "storeName": "알파문구반포점",
      "lat": 37.4983722,
      "lng": 126.9982077,
      "roadAddr": "서울 서초구 서래로 37 ",
      "addr": "서울 서초구 반포동 95-5"
    },
    {
      "no": 432,
      "storeName": "뮤직마트",
      "lat": 37.4831516,
      "lng": 127.0360599,
      "roadAddr": "서울 서초구 강남대로 212",
      "addr": "서울 서초구 양재동 13-8번지"
    },
    {
      "no": 433,
      "storeName": "드림스튜디오",
      "lat": 37.612697,
      "lng": 126.9156424,
      "roadAddr": "서울 은평구 서오릉로 160",
      "addr": "서울 은평구 갈현동 468-3번지"
    },
    {
      "no": 434,
      "storeName": "패기통신",
      "lat": 37.6527733,
      "lng": 127.0513599,
      "roadAddr": "서울 도봉구 노해로 389",
      "addr": "서울 도봉구 창4동 16번지"
    },
    {
      "no": 435,
      "storeName": "헬로마트",
      "lat": 37.6803727,
      "lng": 127.0459884,
      "roadAddr": "서울 도봉구 도봉로170길 8",
      "addr": "서울 도봉구 도봉2동 89-148번지"
    },
    {
      "no": 436,
      "storeName": "복권랜드",
      "lat": 37.6673328,
      "lng": 127.0422751,
      "roadAddr": "서울 도봉구 도당로 143 대원제니스빌",
      "addr": "서울 도봉구 방학동 656-9"
    },
    {
      "no": 437,
      "storeName": "대박나라",
      "lat": 37.5392249,
      "lng": 126.9890202,
      "roadAddr": "서울 용산구 회나무로 21",
      "addr": "서울 용산구 이태원동 278-8"
    },
    {
      "no": 438,
      "storeName": "커피다",
      "lat": 37.5530625,
      "lng": 126.9762003,
      "roadAddr": "서울 용산구 후암로 81",
      "addr": "서울 용산구 동자동 4번지"
    },
    {
      "no": 439,
      "storeName": "9스토아",
      "lat": 37.5331601,
      "lng": 126.9942335,
      "roadAddr": "서울 용산구 보광로 117",
      "addr": "서울 용산구 이태원동 130-43"
    },
    {
      "no": 440,
      "storeName": "바로정보",
      "lat": 37.549197,
      "lng": 126.8676463,
      "roadAddr": "서울 양천구 공항대로 562",
      "addr": "서울 양천구 목3동 603-8번지"
    },
    {
      "no": 441,
      "storeName": "세종장식",
      "lat": 37.5253888,
      "lng": 126.8600819,
      "roadAddr": "서울 양천구 오목로 204",
      "addr": "서울 양천구 신정4동 987-7번지"
    },
    {
      "no": 442,
      "storeName": "신영정보통신",
      "lat": 37.5355063,
      "lng": 126.8632004,
      "roadAddr": "서울 강서구 등촌로 61",
      "addr": "서울 강서구 화곡4동 772-64번지"
    },
    {
      "no": 443,
      "storeName": "그랑프리안경",
      "lat": 37.5478512,
      "lng": 126.8353978,
      "roadAddr": "서울 강서구 강서로45길 13 선화빌딩",
      "addr": "서울 강서구 화곡동 1007-2"
    },
    {
      "no": 444,
      "storeName": "이가복권방",
      "lat": 37.5754844,
      "lng": 127.0469038,
      "roadAddr": "서울 동대문구 서울시립대로 45 ",
      "addr": "서울 동대문구 전농동 644-90"
    },
    {
      "no": 445,
      "storeName": "현대비디오",
      "lat": 37.5718623,
      "lng": 127.0686843,
      "roadAddr": "서울 동대문구 장한로25길 45",
      "addr": "서울 동대문구 장안1동 389-1번지"
    },
    {
      "no": 446,
      "storeName": "참텔레콤",
      "lat": 37.5726731,
      "lng": 127.0576426,
      "roadAddr": "서울 동대문구 전농로 86-1",
      "addr": "서울 동대문구 답십리동 53-6"
    },
    {
      "no": 447,
      "storeName": "대박복권",
      "lat": 37.5748316,
      "lng": 127.0595904,
      "roadAddr": "서울 동대문구 전농로10길 20",
      "addr": "서울 동대문구 답십리동 80번지"
    },
    {
      "no": 448,
      "storeName": "알파문구",
      "lat": 37.5069358,
      "lng": 127.0625979,
      "roadAddr": "서울 강남구 영동대로85길 13 대치동송석빌딩",
      "addr": "서울 강남구 대치동 950-1"
    },
    {
      "no": 449,
      "storeName": "윈마트",
      "lat": 37.5035343,
      "lng": 127.0977074,
      "roadAddr": "서울 송파구 삼학사로16길 4",
      "addr": "서울 송파구 석촌동 12번지"
    },
    {
      "no": 450,
      "storeName": "그린마트",
      "lat": 37.506908,
      "lng": 127.0874982,
      "roadAddr": "서울 송파구 백제고분로19길 26",
      "addr": "서울 송파구 잠실동 245번지"
    },
    {
      "no": 451,
      "storeName": "노다지로또",
      "lat": 37.5894841,
      "lng": 127.091784,
      "roadAddr": "서울 중랑구 겸재로 217",
      "addr": "서울 중랑구 면목본동 74-35번지"
    },
    {
      "no": 452,
      "storeName": "트윙클용마점",
      "lat": 37.5949291,
      "lng": 127.100249,
      "roadAddr": "서울 중랑구 용마산로 494",
      "addr": "서울 중랑구 망우동 410-1번지"
    },
    {
      "no": 453,
      "storeName": "열린문구",
      "lat": 37.6007017,
      "lng": 127.1002604,
      "roadAddr": "서울 중랑구 용마산로 557 ",
      "addr": "서울 중랑구 신내동 492-24"
    },
    {
      "no": 454,
      "storeName": "리더스",
      "lat": 37.6064552,
      "lng": 127.0947162,
      "roadAddr": "서울 중랑구 봉화산로 194 신아타운",
      "addr": "서울 중랑구 신내동 666"
    },
    {
      "no": 455,
      "storeName": "태원정보통신",
      "lat": 37.595434,
      "lng": 127.0896775,
      "roadAddr": "서울 중랑구 봉우재로33길 80",
      "addr": "서울 중랑구 상봉2동 88-75번지"
    },
    {
      "no": 456,
      "storeName": "행운나라",
      "lat": 37.5938637,
      "lng": 127.0925833,
      "roadAddr": "서울 중랑구 봉우재로 176-1",
      "addr": "서울 중랑구 면목동 89-2번지"
    },
    {
      "no": 457,
      "storeName": "갈렙분식한식",
      "lat": 37.5982253,
      "lng": 127.095291,
      "roadAddr": "서울 중랑구 용마산로115길 92",
      "addr": "서울 중랑구 망우동 490-13번지"
    },
    {
      "no": 458,
      "storeName": "우진음악사",
      "lat": 37.5905125,
      "lng": 127.0933447,
      "roadAddr": "서울 중랑구 상봉로 51",
      "addr": "서울 중랑구 면목본동 87-8번지"
    },
    {
      "no": 459,
      "storeName": "왕자사진관",
      "lat": 37.6009,
      "lng": 127.1086677,
      "roadAddr": "서울 중랑구 양원역로 2",
      "addr": "서울 중랑구 망우동 128-4번지"
    },
    {
      "no": 460,
      "storeName": "예스로또",
      "lat": 37.576017,
      "lng": 127.0827809,
      "roadAddr": "서울 중랑구 면목로31길 43",
      "addr": "서울 중랑구 면목4동 349-29번지"
    },
    {
      "no": 461,
      "storeName": "장보고복권방",
      "lat": 37.578392,
      "lng": 127.0862416,
      "roadAddr": "서울 중랑구 면목로 288",
      "addr": "서울 중랑구 면목동 627-16번지"
    },
    {
      "no": 462,
      "storeName": "더블행운점",
      "lat": 37.5862507,
      "lng": 127.0786648,
      "roadAddr": "서울 중랑구 겸재로 98 SK텔레콤",
      "addr": "서울 중랑구 면목동 175-3"
    },
    {
      "no": 463,
      "storeName": "대박찬스",
      "lat": 37.5894044,
      "lng": 127.089787,
      "roadAddr": "서울 중랑구 면목로74길 40",
      "addr": "서울 중랑구 면목동 103-7번지"
    },
    {
      "no": 464,
      "storeName": "해와달",
      "lat": 37.5472385,
      "lng": 126.934103,
      "roadAddr": "서울 마포구 독막로 184-1",
      "addr": "서울 마포구 신수동 339-3번지"
    },
    {
      "no": 465,
      "storeName": "장원사",
      "lat": 37.5445182,
      "lng": 126.9355647,
      "roadAddr": "서울 마포구 토정로 224",
      "addr": "서울 마포구 신수동 448-23번지"
    },
    {
      "no": 466,
      "storeName": "인더라인25",
      "lat": 37.5625158,
      "lng": 126.9271266,
      "roadAddr": "서울 마포구 성미산로 199 ",
      "addr": "서울 마포구 상암동 1597"
    },
    {
      "no": 467,
      "storeName": "팬시겔러리",
      "lat": 37.5677455,
      "lng": 126.9644804,
      "roadAddr": "서울 서대문구 통일로 153-1",
      "addr": "서울 서대문구 냉천동 227번지"
    },
    {
      "no": 468,
      "storeName": "현대서점",
      "lat": 37.5129359,
      "lng": 126.9306714,
      "roadAddr": "서울 동작구 등용로 127 대방동현대아파트",
      "addr": "서울 동작구 대방동 502"
    },
    {
      "no": 469,
      "storeName": "학림서점",
      "lat": 37.5124509,
      "lng": 126.9513734,
      "roadAddr": "서울 동작구 노량진로 228 녹천약국",
      "addr": "서울 동작구 본동 400"
    },
    {
      "no": 470,
      "storeName": "삼성열쇠공사",
      "lat": 37.5115094,
      "lng": 126.9445147,
      "roadAddr": "서울 동작구 만양로 90-1 예뜰미술학원",
      "addr": "서울 동작구 노량진동 119-144"
    },
    {
      "no": 471,
      "storeName": "대진",
      "lat": 37.6497003,
      "lng": 127.0613754,
      "roadAddr": "서울 노원구 동일로 1355",
      "addr": "서울 노원구 상계동 746-5"
    },
    {
      "no": 472,
      "storeName": "복사문구",
      "lat": 37.5440504,
      "lng": 127.1420702,
      "roadAddr": "서울 강동구 양재대로 1549",
      "addr": "서울 강동구 천호1동 45-2번지"
    },
    {
      "no": 473,
      "storeName": "뮤직프라자",
      "lat": 37.4788506,
      "lng": 126.9323444,
      "roadAddr": "서울 관악구 신림로 266 부림빌딩",
      "addr": "서울 관악구 신림동 848"
    },
    {
      "no": 474,
      "storeName": "행운복권방",
      "lat": 37.4704855,
      "lng": 126.9201215,
      "roadAddr": "서울 관악구 난곡로 172 ",
      "addr": "서울 관악구 신림동 637-9"
    },
    {
      "no": 475,
      "storeName": "헬스프라자",
      "lat": 37.4815315,
      "lng": 126.9532377,
      "roadAddr": "서울 관악구 관악로 184",
      "addr": "서울 관악구 봉천동 858-9"
    },
    {
      "no": 476,
      "storeName": "미래통신",
      "lat": 37.6162192,
      "lng": 127.0489194,
      "roadAddr": "서울 성북구 장월로 118-1 ",
      "addr": "서울 성북구 장위동 237-214"
    },
    {
      "no": 477,
      "storeName": "영광정보통신",
      "lat": 37.6027085,
      "lng": 127.0425125,
      "roadAddr": "서울 성북구 화랑로 92 ",
      "addr": "서울 성북구 하월곡동 37-74"
    },
    {
      "no": 478,
      "storeName": "돈벼락맞는 황금알대박동행 로또방",
      "lat": 37.6069809,
      "lng": 127.0491129,
      "roadAddr": "서울 성북구 화랑로 167 ",
      "addr": "서울 성북구 상월곡동 26-5"
    },
    {
      "no": 479,
      "storeName": "소문난복권명당",
      "lat": 37.6069148,
      "lng": 127.0608617,
      "roadAddr": "서울 성북구 돌곶이로 29",
      "addr": "서울 성북구 석관동 332-667번지"
    },
    {
      "no": 480,
      "storeName": "천하명당복권방",
      "lat": 37.6033789,
      "lng": 127.012937,
      "roadAddr": "서울 성북구 정릉로 268",
      "addr": "서울 성북구 정릉동 151-15번지"
    },
    {
      "no": 481,
      "storeName": "대명씨앤씨",
      "lat": 37.5849291,
      "lng": 127.0178638,
      "roadAddr": "서울 성북구 지봉로 171",
      "addr": "서울 성북구 보문동2가 75-17"
    },
    {
      "no": 482,
      "storeName": "평안당",
      "lat": 37.5712238,
      "lng": 127.0022126,
      "roadAddr": "서울 종로구 종로 219",
      "addr": "서울 종로구 종로5가 80-1번지"
    },
    {
      "no": 483,
      "storeName": "문구박사",
      "lat": 37.5444847,
      "lng": 127.0695922,
      "roadAddr": "서울 광진구 능동로13길 60",
      "addr": "서울 광진구 화양동 15-59번지"
    },
    {
      "no": 484,
      "storeName": "글사랑(책대여점)",
      "lat": 37.5557567,
      "lng": 127.081345,
      "roadAddr": "서울 광진구 천호대로112길 10",
      "addr": "서울 광진구 능동 222-5번지"
    },
    {
      "no": 485,
      "storeName": "뉴골드나라",
      "lat": 37.5451375,
      "lng": 127.0874623,
      "roadAddr": "서울 광진구 광나루로 521",
      "addr": "서울 광진구 구의동 66-92번지"
    },
    {
      "no": 486,
      "storeName": "대박복권방",
      "lat": 37.546395,
      "lng": 127.134267,
      "roadAddr": "서울 강동구 구천면로 300",
      "addr": "서울 강동구 천호동 238-1번지"
    },
    {
      "no": 487,
      "storeName": "복권방",
      "lat": 37.5913716,
      "lng": 127.0165971,
      "roadAddr": "서울 성북구 동소문로20길 28-4",
      "addr": "서울 성북구 동소문동5가 107번지"
    },
    {
      "no": 488,
      "storeName": "늘푸른복권방",
      "lat": 37.5650877,
      "lng": 127.0019223,
      "roadAddr": "서울 중구 을지로36길 35",
      "addr": "서울 중구 오장동 139-11"
    },
    {
      "no": 489,
      "storeName": "럭키마켓",
      "lat": 37.5331362,
      "lng": 127.1442638,
      "roadAddr": "서울 강동구 명일로 159",
      "addr": "서울 강동구 둔촌동 55번지"
    },
    {
      "no": 490,
      "storeName": "교통카드충전소",
      "lat": 37.5239971,
      "lng": 127.1343733,
      "roadAddr": "서울 강동구 양재대로 1317",
      "addr": "서울 강동구 성내동 440-30번지"
    },
    {
      "no": 491,
      "storeName": "유니온복권",
      "lat": 37.5764675,
      "lng": 127.0679494,
      "roadAddr": "서울 동대문구 한천로 174 ",
      "addr": "서울 동대문구 장안동 119-18"
    },
    {
      "no": 492,
      "storeName": "가판대20호",
      "lat": 37.5004361,
      "lng": 127.111097,
      "roadAddr": "서울 송파구 송파대로 365",
      "addr": "서울 송파구 석촌동 296-17번지"
    },
    {
      "no": 493,
      "storeName": "후레쉬마트",
      "lat": 37.5459466,
      "lng": 127.1722262,
      "roadAddr": "서울 강동구 천호대로 1476 ",
      "addr": "서울 강동구 상일동 431-3"
    },
    {
      "no": 494,
      "storeName": "현경하이퍼마켓",
      "lat": 37.6437349,
      "lng": 127.0147517,
      "roadAddr": "서울 강북구 삼양로117길 25",
      "addr": "서울 강북구 수유동 311-6번지"
    },
    {
      "no": 495,
      "storeName": "가로판매소",
      "lat": 37.5078567,
      "lng": 126.8918864,
      "roadAddr": "서울 구로구 새말로 117-24",
      "addr": "서울 구로구 구로동 1-4"
    },
    {
      "no": 496,
      "storeName": "가로판매점",
      "lat": 37.4527732,
      "lng": 126.9016655,
      "roadAddr": "서울 금천구 시흥대로 212 ",
      "addr": "서울 금천구 시흥동 889-13"
    },
    {
      "no": 497,
      "storeName": "그랜드마트앞가판점",
      "lat": 37.5549941,
      "lng": 126.935995,
      "roadAddr": "서울 마포구 신촌로 94",
      "addr": "서울 마포구 노고산동 57-2번지"
    },
    {
      "no": 498,
      "storeName": "신가로판매점",
      "lat": 37.5587176,
      "lng": 126.9744467,
      "roadAddr": "서울 중구 세종대로 26",
      "addr": "서울 중구 남대문로5가 19-4번지"
    },
    {
      "no": 499,
      "storeName": "명동역5번출구가판",
      "lat": 37.5610621,
      "lng": 126.9845444,
      "roadAddr": "서울 중구 퇴계로 115",
      "addr": "서울 중구 충무로1가 24-1번지"
    },
    {
      "no": 500,
      "storeName": "노다지복권방",
      "lat": 37.5729054,
      "lng": 127.0145281,
      "roadAddr": "서울 종로구 종로 333 ",
      "addr": "서울 종로구 창신동 302-5"
    },
    {
      "no": 501,
      "storeName": "형제상회",
      "lat": 37.5724946,
      "lng": 127.030723,
      "roadAddr": "서울 동대문구 무학로 92 ",
      "addr": "서울 동대문구 용두동 127-38"
    },
    {
      "no": 502,
      "storeName": "복권마을(사당점)",
      "lat": 37.4844478,
      "lng": 126.972335,
      "roadAddr": "서울 동작구 사당로 215",
      "addr": "서울 동작구 사당동 252-17"
    },
    {
      "no": 503,
      "storeName": "천하명당복권방",
      "lat": 37.4798115,
      "lng": 126.98085,
      "roadAddr": "서울 동작구 동작대로7길 11 ",
      "addr": "서울 동작구 사당동 1031-1"
    },
    {
      "no": 504,
      "storeName": "오성마트",
      "lat": 37.5996075,
      "lng": 127.1037838,
      "roadAddr": "서울 중랑구 용마산로116길 60",
      "addr": "서울 중랑구 망우동 184-31"
    },
    {
      "no": 505,
      "storeName": "고대잉크복권방",
      "lat": 37.5938034,
      "lng": 127.0586698,
      "roadAddr": "서울 동대문구 이문로 76 ",
      "addr": "서울 동대문구 이문동 336-3"
    },
    {
      "no": 506,
      "storeName": "명당마트",
      "lat": 37.5736049,
      "lng": 126.8140584,
      "roadAddr": "서울 강서구 양천로 91",
      "addr": "서울 강서구 방화동 571-48번지"
    },
    {
      "no": 507,
      "storeName": "크로바쎄븐",
      "lat": 37.4853545,
      "lng": 127.1192266,
      "roadAddr": "서울 송파구 법원로11길 7 문정현대지식산업센터1-2",
      "addr": "서울 송파구 문정동 644-2"
    },
    {
      "no": 508,
      "storeName": "로또복권대치점",
      "lat": 37.4926645,
      "lng": 127.0756013,
      "roadAddr": "서울 강남구 개포로 615",
      "addr": "서울 강남구 개포동 12-4번지"
    },
    {
      "no": 509,
      "storeName": "로또복권방",
      "lat": 37.5088851,
      "lng": 127.0270957,
      "roadAddr": "서울 강남구 강남대로122길 50 상명빌딩",
      "addr": "서울 강남구 논현동 169"
    },
    {
      "no": 510,
      "storeName": "신성복권",
      "lat": 37.519184,
      "lng": 127.0508086,
      "roadAddr": "서울 강남구 학동로 503 한성빌딩",
      "addr": "서울 강남구 청담동 76-6"
    },
    {
      "no": 511,
      "storeName": "신일",
      "lat": 37.5520041,
      "lng": 126.8527074,
      "roadAddr": "서울 강서구 까치산로 163-1",
      "addr": "서울 강서구 화곡동 1121-10"
    },
    {
      "no": 512,
      "storeName": "명당",
      "lat": 37.5341192,
      "lng": 126.8470697,
      "roadAddr": "서울 강서구 강서로18가길 4 ",
      "addr": "서울 강서구 화곡동 339-23"
    },
    {
      "no": 513,
      "storeName": "공원수퍼",
      "lat": 37.5365626,
      "lng": 126.8350357,
      "roadAddr": "서울 강서구 가로공원로72길 3",
      "addr": "서울 강서구 화곡동 372-95번지"
    },
    {
      "no": 514,
      "storeName": "복권",
      "lat": 37.4744628,
      "lng": 126.9638567,
      "roadAddr": "서울 관악구 낙성대역길 91 우선빌딩",
      "addr": "서울 관악구 봉천동 196-33"
    },
    {
      "no": 515,
      "storeName": "로또복권",
      "lat": 37.481842,
      "lng": 126.9417291,
      "roadAddr": "서울 관악구 장군봉1길 29 ",
      "addr": "서울 관악구 봉천동 930-3"
    },
    {
      "no": 516,
      "storeName": "행복만들기",
      "lat": 37.4872747,
      "lng": 126.9143824,
      "roadAddr": "서울 관악구 신사로10길 6 ",
      "addr": "서울 관악구 신림동 517-6"
    },
    {
      "no": 517,
      "storeName": "대박로또",
      "lat": 37.4761224,
      "lng": 126.9157865,
      "roadAddr": "서울 관악구 난곡로 247 ",
      "addr": "서울 관악구 신림동 763-20"
    },
    {
      "no": 518,
      "storeName": "은혜기획사로또",
      "lat": 37.5579199,
      "lng": 127.0893763,
      "roadAddr": "서울 광진구 영화사로 15",
      "addr": "서울 광진구 중곡동 83-8번지"
    },
    {
      "no": 519,
      "storeName": "광나루복권방",
      "lat": 37.546157,
      "lng": 127.1049093,
      "roadAddr": "서울 광진구 아차산로 591",
      "addr": "서울 광진구 광장동 244-6번지"
    },
    {
      "no": 520,
      "storeName": "청송상회",
      "lat": 37.5415127,
      "lng": 127.0889532,
      "roadAddr": "서울 광진구 광나루로40길 73",
      "addr": "서울 광진구 구의동 222-64번지"
    },
    {
      "no": 521,
      "storeName": "동서울로또",
      "lat": 37.534538,
      "lng": 127.0942004,
      "roadAddr": "서울 광진구 강변역로 50 동서울터미널빌딩",
      "addr": "서울 광진구 구의동 546-1"
    },
    {
      "no": 522,
      "storeName": "Today",
      "lat": 37.5357263,
      "lng": 127.0957093,
      "roadAddr": "서울 광진구 광나루로56길 85",
      "addr": "서울 광진구 구의동 546-4번지"
    },
    {
      "no": 523,
      "storeName": "세븐몽키스커피",
      "lat": 37.5574206,
      "lng": 127.076418,
      "roadAddr": "서울 광진구 면목로 37",
      "addr": "서울 광진구 군자동 469-22번지"
    },
    {
      "no": 524,
      "storeName": "성동약국",
      "lat": 37.5306969,
      "lng": 127.0747079,
      "roadAddr": "서울 광진구 자양번영로 11",
      "addr": "서울 광진구 자양동 584-13번지"
    },
    {
      "no": 525,
      "storeName": "로또복권",
      "lat": 37.5628375,
      "lng": 127.0802596,
      "roadAddr": "서울 광진구 긴고랑로 38",
      "addr": "서울 광진구 중곡동 244-1번지"
    },
    {
      "no": 526,
      "storeName": "복권소매",
      "lat": 37.4737429,
      "lng": 126.8904699,
      "roadAddr": "서울 금천구 가산로5길 77",
      "addr": "서울 금천구 가산동 237-26"
    },
    {
      "no": 527,
      "storeName": "새시대복권방",
      "lat": 37.4509719,
      "lng": 126.9103593,
      "roadAddr": "서울 금천구 탑골로 6-1 ",
      "addr": "서울 금천구 시흥동 249-11"
    },
    {
      "no": 528,
      "storeName": "로또복권판매",
      "lat": 37.4563317,
      "lng": 126.9021526,
      "roadAddr": "서울 금천구 시흥대로62길 42 ",
      "addr": "서울 금천구 시흥동 880-1"
    },
    {
      "no": 529,
      "storeName": "로또",
      "lat": 37.5129327,
      "lng": 126.9266893,
      "roadAddr": "서울 동작구 노량진로 9",
      "addr": "서울 동작구 대방동 117-4"
    },
    {
      "no": 530,
      "storeName": "이대역4번출구앞가판점",
      "lat": 37.5570599,
      "lng": 126.9466833,
      "roadAddr": "서울 서대문구 신촌로 187 ",
      "addr": "서울 서대문구 대현동 45-21"
    },
    {
      "no": 531,
      "storeName": "우리은행 앞 가판점",
      "lat": 37.5577197,
      "lng": 126.9567185,
      "roadAddr": "서울 서대문구 신촌로 275",
      "addr": "서울 서대문구 북아현동 135-4번지"
    },
    {
      "no": 532,
      "storeName": "가로판매점",
      "lat": 37.4870229,
      "lng": 126.9828023,
      "roadAddr": "서울 서초구 동작대로 118 방배동예다인프라자빌딩",
      "addr": "서울 서초구 방배동 1549"
    },
    {
      "no": 533,
      "storeName": "청수마트",
      "lat": 37.4689485,
      "lng": 127.0413757,
      "roadAddr": "서울 서초구 강남대로10길 36 ",
      "addr": "서울 서초구 양재동 329"
    },
    {
      "no": 534,
      "storeName": "로또복권판매소",
      "lat": 37.5638764,
      "lng": 127.0328859,
      "roadAddr": "서울 성동구 왕십리로26길 10",
      "addr": "서울 성동구 도선동 185-5번지"
    },
    {
      "no": 535,
      "storeName": "옥수역복권방",
      "lat": 37.5415798,
      "lng": 127.0166255,
      "roadAddr": "서울 성동구 한림말길 49",
      "addr": "서울 성동구 옥수동 385-4번지"
    },
    {
      "no": 536,
      "storeName": "주아킹 목동점",
      "lat": 37.5274766,
      "lng": 126.8638405,
      "roadAddr": "서울 양천구 목동로 213",
      "addr": "서울 양천구 신정동 900-21"
    },
    {
      "no": 537,
      "storeName": "버스카드충전소",
      "lat": 37.5138178,
      "lng": 126.9266878,
      "roadAddr": "서울 영등포구 여의대방로62길 2",
      "addr": "서울 영등포구 신길동 1432번지"
    },
    {
      "no": 538,
      "storeName": "로또방",
      "lat": 37.5176345,
      "lng": 126.9065192,
      "roadAddr": "서울 영등포구 영중로 12 에쉐르아이 시네마 쇼핑몰",
      "addr": "서울 영등포구 영등포동3가 9-13"
    },
    {
      "no": 539,
      "storeName": "스탐티쉬",
      "lat": 37.5927086,
      "lng": 126.9656894,
      "roadAddr": "서울 종로구 백석동길 1",
      "addr": "서울 종로구 부암동 258-5번지"
    },
    {
      "no": 540,
      "storeName": "축복마트",
      "lat": 37.5854098,
      "lng": 127.0800641,
      "roadAddr": "서울 중랑구 동일로 616 ",
      "addr": "서울 중랑구 면목동 151-7"
    },
    {
      "no": 541,
      "storeName": "용꿈복권",
      "lat": 37.596076,
      "lng": 127.0987367,
      "roadAddr": "서울 중랑구 봉우재로71길 21",
      "addr": "서울 중랑구 망우동 461-6번지"
    },
    {
      "no": 542,
      "storeName": "로또코리아",
      "lat": 37.5920479,
      "lng": 127.0859731,
      "roadAddr": "서울 중랑구 봉우재로28길 33",
      "addr": "서울 중랑구 면목동 131-6"
    },
    {
      "no": 543,
      "storeName": "가로판매점",
      "lat": 37.5937271,
      "lng": 127.0762385,
      "roadAddr": "서울 중랑구 망우로 212 ",
      "addr": "서울 중랑구 상봉동 130"
    },
    {
      "no": 544,
      "storeName": "씨유 망우점 2",
      "lat": 37.5989801,
      "lng": 127.0976241,
      "roadAddr": "서울 중랑구 망우로 410",
      "addr": "서울 중랑구 망우동 470-10"
    },
    {
      "no": 545,
      "storeName": "LOTTO복권",
      "lat": 37.4969664,
      "lng": 127.0463898,
      "roadAddr": "서울 강남구 언주로70길 10",
      "addr": "서울 강남구 역삼동 761-2"
    },
    {
      "no": 546,
      "storeName": "새날",
      "lat": 37.4971584,
      "lng": 127.0304025,
      "roadAddr": "서울 강남구 강남대로84길 23",
      "addr": "서울 강남구 역삼동 824-11"
    },
    {
      "no": 547,
      "storeName": "로또",
      "lat": 37.5045825,
      "lng": 127.0507411,
      "roadAddr": "서울 강남구 테헤란로  410",
      "addr": "서울 강남구 대치동 889-13"
    },
    {
      "no": 548,
      "storeName": "대박",
      "lat": 37.492747,
      "lng": 127.0843781,
      "roadAddr": "서울 강남구 일원로3길 55 ",
      "addr": "서울 강남구 일원동 656-5"
    },
    {
      "no": 549,
      "storeName": "로또판매 강남역삼점",
      "lat": 37.5043909,
      "lng": 127.0423614,
      "roadAddr": "서울 강남구 언주로 510 효림빌딩",
      "addr": "서울 강남구 역삼동 700-6"
    },
    {
      "no": 550,
      "storeName": "보람로또",
      "lat": 37.5240568,
      "lng": 127.0489202,
      "roadAddr": "서울 강남구 도산대로 510",
      "addr": "서울 강남구 청담동 49-5"
    },
    {
      "no": 551,
      "storeName": "로또판매",
      "lat": 37.5056143,
      "lng": 127.0583533,
      "roadAddr": "서울 강남구 삼성로86길  10",
      "addr": "서울 강남구 대치동 957-3"
    },
    {
      "no": 552,
      "storeName": "찬스복권방",
      "lat": 37.6472313,
      "lng": 127.0169794,
      "roadAddr": "서울 강북구 한천로 1156 상민빌딩",
      "addr": "서울 강북구 수유동 273-66"
    },